[
    {
        "nome": "Abadia de Goiás",
        "latitude": -16.7573,
        "longitude": -49.4412,
        "uf": "GO"
    },
    {
        "nome": "Abadia dos Dourados",
        "latitude": -18.4831,
        "longitude": -47.3916,
        "uf": "MG"
    },
    {
        "nome": "Abadiânia",
        "latitude": -16.197,
        "longitude": -48.7057,
        "uf": "GO"
    },
    {
        "nome": "Abaeté",
        "latitude": -19.1551,
        "longitude": -45.4444,
        "uf": "MG"
    },
    {
        "nome": "Abaetetuba",
        "latitude": -1.72183,
        "longitude": -48.8788,
        "uf": "PA"
    },
    {
        "nome": "Abaiara",
        "latitude": -7.34588,
        "longitude": -39.0416,
        "uf": "CE"
    },
    {
        "nome": "Abaíra",
        "latitude": -13.2488,
        "longitude": -41.6619,
        "uf": "BA"
    },
    {
        "nome": "Abaré",
        "latitude": -8.72073,
        "longitude": -39.1162,
        "uf": "BA"
    },
    {
        "nome": "Abatiá",
        "latitude": -23.3049,
        "longitude": -50.3133,
        "uf": "PR"
    },
    {
        "nome": "Abdon Batista",
        "latitude": -27.6126,
        "longitude": -51.0233,
        "uf": "SC"
    },
    {
        "nome": "Abel Figueiredo",
        "latitude": -4.95333,
        "longitude": -48.3933,
        "uf": "PA"
    },
    {
        "nome": "Abelardo Luz",
        "latitude": -26.5716,
        "longitude": -52.3229,
        "uf": "SC"
    },
    {
        "nome": "Abre Campo",
        "latitude": -20.2996,
        "longitude": -42.4743,
        "uf": "MG"
    },
    {
        "nome": "Abreu e Lima",
        "latitude": -7.90072,
        "longitude": -34.8984,
        "uf": "PE"
    },
    {
        "nome": "Abreulândia",
        "latitude": -9.62101,
        "longitude": -49.1518,
        "uf": "TO"
    },
    {
        "nome": "Acaiaca",
        "latitude": -20.359,
        "longitude": -43.1439,
        "uf": "MG"
    },
    {
        "nome": "Açailândia",
        "latitude": -4.94714,
        "longitude": -47.5004,
        "uf": "MA"
    },
    {
        "nome": "Acajutiba",
        "latitude": -11.6575,
        "longitude": -38.0197,
        "uf": "BA"
    },
    {
        "nome": "Acará",
        "latitude": -1.95383,
        "longitude": -48.1985,
        "uf": "PA"
    },
    {
        "nome": "Acarape",
        "latitude": -4.22083,
        "longitude": -38.7055,
        "uf": "CE"
    },
    {
        "nome": "Acaraú",
        "latitude": -2.88769,
        "longitude": -40.1183,
        "uf": "CE"
    },
    {
        "nome": "Acari",
        "latitude": -6.4282,
        "longitude": -36.6347,
        "uf": "RN"
    },
    {
        "nome": "Acauã",
        "latitude": -8.21954,
        "longitude": -41.0831,
        "uf": "PI"
    },
    {
        "nome": "Aceguá",
        "latitude": -31.8665,
        "longitude": -54.1615,
        "uf": "RS"
    },
    {
        "nome": "Acopiara",
        "latitude": -6.08911,
        "longitude": -39.448,
        "uf": "CE"
    },
    {
        "nome": "Acorizal",
        "latitude": -15.194,
        "longitude": -56.3632,
        "uf": "MT"
    },
    {
        "nome": "Acrelândia",
        "latitude": -9.82581,
        "longitude": -66.8972,
        "uf": "AC"
    },
    {
        "nome": "Acreúna",
        "latitude": -17.396,
        "longitude": -50.3749,
        "uf": "GO"
    },
    {
        "nome": "Açu",
        "latitude": -5.58362,
        "longitude": -36.914,
        "uf": "RN"
    },
    {
        "nome": "Açucena",
        "latitude": -19.0671,
        "longitude": -42.5419,
        "uf": "MG"
    },
    {
        "nome": "Adamantina",
        "latitude": -21.682,
        "longitude": -51.0737,
        "uf": "SP"
    },
    {
        "nome": "Adelândia",
        "latitude": -16.4127,
        "longitude": -50.1657,
        "uf": "GO"
    },
    {
        "nome": "Adolfo",
        "latitude": -21.2325,
        "longitude": -49.6451,
        "uf": "SP"
    },
    {
        "nome": "Adrianópolis",
        "latitude": -24.6606,
        "longitude": -48.9922,
        "uf": "PR"
    },
    {
        "nome": "Adustina",
        "latitude": -10.5437,
        "longitude": -38.1113,
        "uf": "BA"
    },
    {
        "nome": "Afogados da Ingazeira",
        "latitude": -7.74312,
        "longitude": -37.631,
        "uf": "PE"
    },
    {
        "nome": "Afonso Bezerra",
        "latitude": -5.49229,
        "longitude": -36.5075,
        "uf": "RN"
    },
    {
        "nome": "Afonso Cláudio",
        "latitude": -20.0778,
        "longitude": -41.1261,
        "uf": "ES"
    },
    {
        "nome": "Afonso Cunha",
        "latitude": -4.13631,
        "longitude": -43.3275,
        "uf": "MA"
    },
    {
        "nome": "Afrânio",
        "latitude": -8.51136,
        "longitude": -41.0095,
        "uf": "PE"
    },
    {
        "nome": "Afuá",
        "latitude": -0.154874,
        "longitude": -50.3861,
        "uf": "PA"
    },
    {
        "nome": "Agrestina",
        "latitude": -8.45966,
        "longitude": -35.9447,
        "uf": "PE"
    },
    {
        "nome": "Agricolândia",
        "latitude": -5.79676,
        "longitude": -42.6664,
        "uf": "PI"
    },
    {
        "nome": "Agrolândia",
        "latitude": -27.4087,
        "longitude": -49.822,
        "uf": "SC"
    },
    {
        "nome": "Agronômica",
        "latitude": -27.2662,
        "longitude": -49.708,
        "uf": "SC"
    },
    {
        "nome": "Água Azul do Norte",
        "latitude": -6.79053,
        "longitude": -50.4791,
        "uf": "PA"
    },
    {
        "nome": "Água Boa",
        "latitude": -17.9914,
        "longitude": -42.3806,
        "uf": "MG"
    },
    {
        "nome": "Água Boa",
        "latitude": -14.051,
        "longitude": -52.1601,
        "uf": "MT"
    },
    {
        "nome": "Água Branca",
        "latitude": -5.88856,
        "longitude": -42.637,
        "uf": "PI"
    },
    {
        "nome": "Água Branca",
        "latitude": -7.51144,
        "longitude": -37.6357,
        "uf": "PB"
    },
    {
        "nome": "Água Branca",
        "latitude": -9.262,
        "longitude": -37.938,
        "uf": "AL"
    },
    {
        "nome": "Água Clara",
        "latitude": -20.4452,
        "longitude": -52.879,
        "uf": "MS"
    },
    {
        "nome": "Água Comprida",
        "latitude": -20.0576,
        "longitude": -48.1069,
        "uf": "MG"
    },
    {
        "nome": "Água Doce",
        "latitude": -26.9985,
        "longitude": -51.5528,
        "uf": "SC"
    },
    {
        "nome": "Água Doce do Maranhão",
        "latitude": -2.84048,
        "longitude": -42.1189,
        "uf": "MA"
    },
    {
        "nome": "Água Doce do Norte",
        "latitude": -18.5482,
        "longitude": -40.9854,
        "uf": "ES"
    },
    {
        "nome": "Água Fria",
        "latitude": -11.8618,
        "longitude": -38.7639,
        "uf": "BA"
    },
    {
        "nome": "Água Fria de Goiás",
        "latitude": -14.9778,
        "longitude": -47.7823,
        "uf": "GO"
    },
    {
        "nome": "Água Limpa",
        "latitude": -18.0771,
        "longitude": -48.7603,
        "uf": "GO"
    },
    {
        "nome": "Água Nova",
        "latitude": -6.20351,
        "longitude": -38.2941,
        "uf": "RN"
    },
    {
        "nome": "Água Preta",
        "latitude": -8.70609,
        "longitude": -35.5263,
        "uf": "PE"
    },
    {
        "nome": "Água Santa",
        "latitude": -28.1672,
        "longitude": -52.031,
        "uf": "RS"
    },
    {
        "nome": "Aguaí",
        "latitude": -22.0572,
        "longitude": -46.9735,
        "uf": "SP"
    },
    {
        "nome": "Aguanil",
        "latitude": -20.9439,
        "longitude": -45.3915,
        "uf": "MG"
    },
    {
        "nome": "Águas Belas",
        "latitude": -9.11125,
        "longitude": -37.1226,
        "uf": "PE"
    },
    {
        "nome": "Águas da Prata",
        "latitude": -21.9319,
        "longitude": -46.7176,
        "uf": "SP"
    },
    {
        "nome": "Águas de Chapecó",
        "latitude": -27.0754,
        "longitude": -52.9808,
        "uf": "SC"
    },
    {
        "nome": "Águas de Lindóia",
        "latitude": -22.4733,
        "longitude": -46.6314,
        "uf": "SP"
    },
    {
        "nome": "Águas de Santa Bárbara",
        "latitude": -22.8812,
        "longitude": -49.2421,
        "uf": "SP"
    },
    {
        "nome": "Águas de São Pedro",
        "latitude": -22.5977,
        "longitude": -47.8734,
        "uf": "SP"
    },
    {
        "nome": "Águas Formosas",
        "latitude": -17.0802,
        "longitude": -40.9384,
        "uf": "MG"
    },
    {
        "nome": "Águas Frias",
        "latitude": -26.8794,
        "longitude": -52.8568,
        "uf": "SC"
    },
    {
        "nome": "Águas Lindas de Goiás",
        "latitude": -15.7617,
        "longitude": -48.2816,
        "uf": "GO"
    },
    {
        "nome": "Águas Mornas",
        "latitude": -27.6963,
        "longitude": -48.8243,
        "uf": "SC"
    },
    {
        "nome": "Águas Vermelhas",
        "latitude": -15.7431,
        "longitude": -41.4571,
        "uf": "MG"
    },
    {
        "nome": "Agudo",
        "latitude": -29.6447,
        "longitude": -53.2515,
        "uf": "RS"
    },
    {
        "nome": "Agudos",
        "latitude": -22.4694,
        "longitude": -48.9863,
        "uf": "SP"
    },
    {
        "nome": "Agudos do Sul",
        "latitude": -25.9899,
        "longitude": -49.3343,
        "uf": "PR"
    },
    {
        "nome": "Águia Branca",
        "latitude": -18.9846,
        "longitude": -40.7437,
        "uf": "ES"
    },
    {
        "nome": "Aguiar",
        "latitude": -7.0918,
        "longitude": -38.1681,
        "uf": "PB"
    },
    {
        "nome": "Aguiarnópolis",
        "latitude": -6.55409,
        "longitude": -47.4702,
        "uf": "TO"
    },
    {
        "nome": "Aimorés",
        "latitude": -19.5007,
        "longitude": -41.0746,
        "uf": "MG"
    },
    {
        "nome": "Aiquara",
        "latitude": -14.1269,
        "longitude": -39.8937,
        "uf": "BA"
    },
    {
        "nome": "Aiuaba",
        "latitude": -6.57122,
        "longitude": -40.1178,
        "uf": "CE"
    },
    {
        "nome": "Aiuruoca",
        "latitude": -21.9736,
        "longitude": -44.6042,
        "uf": "MG"
    },
    {
        "nome": "Ajuricaba",
        "latitude": -28.2342,
        "longitude": -53.7757,
        "uf": "RS"
    },
    {
        "nome": "Alagoa",
        "latitude": -22.171,
        "longitude": -44.6413,
        "uf": "MG"
    },
    {
        "nome": "Alagoa Grande",
        "latitude": -7.03943,
        "longitude": -35.6206,
        "uf": "PB"
    },
    {
        "nome": "Alagoa Nova",
        "latitude": -7.05377,
        "longitude": -35.7591,
        "uf": "PB"
    },
    {
        "nome": "Alagoinha",
        "latitude": -6.94657,
        "longitude": -35.5332,
        "uf": "PB"
    },
    {
        "nome": "Alagoinha",
        "latitude": -8.4665,
        "longitude": -36.7788,
        "uf": "PE"
    },
    {
        "nome": "Alagoinha do Piauí",
        "latitude": -7.00039,
        "longitude": -40.9282,
        "uf": "PI"
    },
    {
        "nome": "Alagoinhas",
        "latitude": -12.1335,
        "longitude": -38.4208,
        "uf": "BA"
    },
    {
        "nome": "Alambari",
        "latitude": -23.5503,
        "longitude": -47.898,
        "uf": "SP"
    },
    {
        "nome": "Albertina",
        "latitude": -22.2018,
        "longitude": -46.6139,
        "uf": "MG"
    },
    {
        "nome": "Alcântara",
        "latitude": -2.39574,
        "longitude": -44.4062,
        "uf": "MA"
    },
    {
        "nome": "Alcântaras",
        "latitude": -3.58537,
        "longitude": -40.5479,
        "uf": "CE"
    },
    {
        "nome": "Alcantil",
        "latitude": -7.73668,
        "longitude": -36.0511,
        "uf": "PB"
    },
    {
        "nome": "Alcinópolis",
        "latitude": -18.3255,
        "longitude": -53.7042,
        "uf": "MS"
    },
    {
        "nome": "Alcobaça",
        "latitude": -17.5195,
        "longitude": -39.2036,
        "uf": "BA"
    },
    {
        "nome": "Aldeias Altas",
        "latitude": -4.62621,
        "longitude": -43.4689,
        "uf": "MA"
    },
    {
        "nome": "Alecrim",
        "latitude": -27.6579,
        "longitude": -54.7649,
        "uf": "RS"
    },
    {
        "nome": "Alegre",
        "latitude": -20.758,
        "longitude": -41.5382,
        "uf": "ES"
    },
    {
        "nome": "Alegrete",
        "latitude": -29.7902,
        "longitude": -55.7949,
        "uf": "RS"
    },
    {
        "nome": "Alegrete do Piauí",
        "latitude": -7.24196,
        "longitude": -40.8566,
        "uf": "PI"
    },
    {
        "nome": "Alegria",
        "latitude": -27.8345,
        "longitude": -54.0557,
        "uf": "RS"
    },
    {
        "nome": "Além Paraíba",
        "latitude": -21.8797,
        "longitude": -42.7176,
        "uf": "MG"
    },
    {
        "nome": "Alenquer",
        "latitude": -1.94623,
        "longitude": -54.7384,
        "uf": "PA"
    },
    {
        "nome": "Alexandria",
        "latitude": -6.40533,
        "longitude": -38.0142,
        "uf": "RN"
    },
    {
        "nome": "Alexânia",
        "latitude": -16.0834,
        "longitude": -48.5076,
        "uf": "GO"
    },
    {
        "nome": "Alfenas",
        "latitude": -21.4256,
        "longitude": -45.9477,
        "uf": "MG"
    },
    {
        "nome": "Alfredo Chaves",
        "latitude": -20.6396,
        "longitude": -40.7543,
        "uf": "ES"
    },
    {
        "nome": "Alfredo Marcondes",
        "latitude": -21.9527,
        "longitude": -51.414,
        "uf": "SP"
    },
    {
        "nome": "Alfredo Vasconcelos",
        "latitude": -21.1535,
        "longitude": -43.7718,
        "uf": "MG"
    },
    {
        "nome": "Alfredo Wagner",
        "latitude": -27.7001,
        "longitude": -49.3273,
        "uf": "SC"
    },
    {
        "nome": "Algodão de Jandaíra",
        "latitude": -6.89292,
        "longitude": -36.0129,
        "uf": "PB"
    },
    {
        "nome": "Alhandra",
        "latitude": -7.42977,
        "longitude": -34.9057,
        "uf": "PB"
    },
    {
        "nome": "Aliança",
        "latitude": -7.60398,
        "longitude": -35.2227,
        "uf": "PE"
    },
    {
        "nome": "Aliança do Tocantins",
        "latitude": -11.3056,
        "longitude": -48.9361,
        "uf": "TO"
    },
    {
        "nome": "Almadina",
        "latitude": -14.7089,
        "longitude": -39.6415,
        "uf": "BA"
    },
    {
        "nome": "Almas",
        "latitude": -11.5706,
        "longitude": -47.1792,
        "uf": "TO"
    },
    {
        "nome": "Almeirim",
        "latitude": -1.52904,
        "longitude": -52.5788,
        "uf": "PA"
    },
    {
        "nome": "Almenara",
        "latitude": -16.1785,
        "longitude": -40.6942,
        "uf": "MG"
    },
    {
        "nome": "Almino Afonso",
        "latitude": -6.1475,
        "longitude": -37.7636,
        "uf": "RN"
    },
    {
        "nome": "Almirante Tamandaré",
        "latitude": -25.3188,
        "longitude": -49.3037,
        "uf": "PR"
    },
    {
        "nome": "Almirante Tamandaré do Sul",
        "latitude": -28.1149,
        "longitude": -52.9142,
        "uf": "RS"
    },
    {
        "nome": "Aloândia",
        "latitude": -17.7292,
        "longitude": -49.4769,
        "uf": "GO"
    },
    {
        "nome": "Alpercata",
        "latitude": -18.974,
        "longitude": -41.97,
        "uf": "MG"
    },
    {
        "nome": "Alpestre",
        "latitude": -27.2502,
        "longitude": -53.0341,
        "uf": "RS"
    },
    {
        "nome": "Alpinópolis",
        "latitude": -20.8631,
        "longitude": -46.3878,
        "uf": "MG"
    },
    {
        "nome": "Alta Floresta",
        "latitude": -9.86674,
        "longitude": -56.0867,
        "uf": "MT"
    },
    {
        "nome": "Alta Floresta D'Oeste",
        "latitude": -11.9283,
        "longitude": -61.9953,
        "uf": "RO"
    },
    {
        "nome": "Altair",
        "latitude": -20.5242,
        "longitude": -49.0571,
        "uf": "SP"
    },
    {
        "nome": "Altamira",
        "latitude": -3.20407,
        "longitude": -52.21,
        "uf": "PA"
    },
    {
        "nome": "Altamira do Maranhão",
        "latitude": -4.16598,
        "longitude": -45.4706,
        "uf": "MA"
    },
    {
        "nome": "Altamira do Paraná",
        "latitude": -24.7983,
        "longitude": -52.7128,
        "uf": "PR"
    },
    {
        "nome": "Altaneira",
        "latitude": -6.99837,
        "longitude": -39.7356,
        "uf": "CE"
    },
    {
        "nome": "Alterosa",
        "latitude": -21.2488,
        "longitude": -46.1387,
        "uf": "MG"
    },
    {
        "nome": "Altinho",
        "latitude": -8.48482,
        "longitude": -36.0644,
        "uf": "PE"
    },
    {
        "nome": "Altinópolis",
        "latitude": -21.0214,
        "longitude": -47.3712,
        "uf": "SP"
    },
    {
        "nome": "Alto Alegre",
        "latitude": -21.5811,
        "longitude": -50.168,
        "uf": "SP"
    },
    {
        "nome": "Alto Alegre",
        "latitude": 2.98858,
        "longitude": -61.3072,
        "uf": "RR"
    },
    {
        "nome": "Alto Alegre",
        "latitude": -28.7769,
        "longitude": -52.9893,
        "uf": "RS"
    },
    {
        "nome": "Alto Alegre do Maranhão",
        "latitude": -4.213,
        "longitude": -44.446,
        "uf": "MA"
    },
    {
        "nome": "Alto Alegre do Pindaré",
        "latitude": -3.66689,
        "longitude": -45.8421,
        "uf": "MA"
    },
    {
        "nome": "Alto Alegre dos Parecis",
        "latitude": -12.132,
        "longitude": -61.835,
        "uf": "RO"
    },
    {
        "nome": "Alto Araguaia",
        "latitude": -17.3153,
        "longitude": -53.2181,
        "uf": "MT"
    },
    {
        "nome": "Alto Bela Vista",
        "latitude": -27.4333,
        "longitude": -51.9044,
        "uf": "SC"
    },
    {
        "nome": "Alto Boa Vista",
        "latitude": -11.6732,
        "longitude": -51.3883,
        "uf": "MT"
    },
    {
        "nome": "Alto Caparaó",
        "latitude": -20.431,
        "longitude": -41.8738,
        "uf": "MG"
    },
    {
        "nome": "Alto do Rodrigues",
        "latitude": -5.28186,
        "longitude": -36.75,
        "uf": "RN"
    },
    {
        "nome": "Alto Feliz",
        "latitude": -29.3919,
        "longitude": -51.3123,
        "uf": "RS"
    },
    {
        "nome": "Alto Garças",
        "latitude": -16.9462,
        "longitude": -53.5272,
        "uf": "MT"
    },
    {
        "nome": "Alto Horizonte",
        "latitude": -14.1978,
        "longitude": -49.3378,
        "uf": "GO"
    },
    {
        "nome": "Alto Jequitibá",
        "latitude": -20.4208,
        "longitude": -41.967,
        "uf": "MG"
    },
    {
        "nome": "Alto Longá",
        "latitude": -5.25634,
        "longitude": -42.2096,
        "uf": "PI"
    },
    {
        "nome": "Alto Paraguai",
        "latitude": -14.5137,
        "longitude": -56.4776,
        "uf": "MT"
    },
    {
        "nome": "Alto Paraíso",
        "latitude": -26.1146,
        "longitude": -52.7469,
        "uf": "PR"
    },
    {
        "nome": "Alto Paraíso",
        "latitude": -9.71429,
        "longitude": -63.3188,
        "uf": "RO"
    },
    {
        "nome": "Alto Paraíso de Goiás",
        "latitude": -14.1305,
        "longitude": -47.51,
        "uf": "GO"
    },
    {
        "nome": "Alto Paraná",
        "latitude": -23.1312,
        "longitude": -52.3189,
        "uf": "PR"
    },
    {
        "nome": "Alto Parnaíba",
        "latitude": -9.10273,
        "longitude": -45.9303,
        "uf": "MA"
    },
    {
        "nome": "Alto Piquiri",
        "latitude": -24.0224,
        "longitude": -53.44,
        "uf": "PR"
    },
    {
        "nome": "Alto Rio Doce",
        "latitude": -21.0281,
        "longitude": -43.4067,
        "uf": "MG"
    },
    {
        "nome": "Alto Rio Novo",
        "latitude": -19.0618,
        "longitude": -41.0209,
        "uf": "ES"
    },
    {
        "nome": "Alto Santo",
        "latitude": -5.50894,
        "longitude": -38.2743,
        "uf": "CE"
    },
    {
        "nome": "Alto Taquari",
        "latitude": -17.8241,
        "longitude": -53.2792,
        "uf": "MT"
    },
    {
        "nome": "Altônia",
        "latitude": -23.8759,
        "longitude": -53.8958,
        "uf": "PR"
    },
    {
        "nome": "Altos",
        "latitude": -5.03888,
        "longitude": -42.4612,
        "uf": "PI"
    },
    {
        "nome": "Alumínio",
        "latitude": -23.5306,
        "longitude": -47.2546,
        "uf": "SP"
    },
    {
        "nome": "Alvarães",
        "latitude": -3.22727,
        "longitude": -64.8007,
        "uf": "AM"
    },
    {
        "nome": "Alvarenga",
        "latitude": -19.4174,
        "longitude": -41.7317,
        "uf": "MG"
    },
    {
        "nome": "Álvares Florence",
        "latitude": -20.3203,
        "longitude": -49.9141,
        "uf": "SP"
    },
    {
        "nome": "Álvares Machado",
        "latitude": -22.0764,
        "longitude": -51.4722,
        "uf": "SP"
    },
    {
        "nome": "Álvaro de Carvalho",
        "latitude": -22.0841,
        "longitude": -49.719,
        "uf": "SP"
    },
    {
        "nome": "Alvinlândia",
        "latitude": -22.4435,
        "longitude": -49.7623,
        "uf": "SP"
    },
    {
        "nome": "Alvinópolis",
        "latitude": -20.1098,
        "longitude": -43.0535,
        "uf": "MG"
    },
    {
        "nome": "Alvorada",
        "latitude": -12.4785,
        "longitude": -49.1249,
        "uf": "TO"
    },
    {
        "nome": "Alvorada",
        "latitude": -29.9914,
        "longitude": -51.0809,
        "uf": "RS"
    },
    {
        "nome": "Alvorada D'Oeste",
        "latitude": -11.3463,
        "longitude": -62.2847,
        "uf": "RO"
    },
    {
        "nome": "Alvorada de Minas",
        "latitude": -18.7334,
        "longitude": -43.3638,
        "uf": "MG"
    },
    {
        "nome": "Alvorada do Gurguéia",
        "latitude": -8.42418,
        "longitude": -43.777,
        "uf": "PI"
    },
    {
        "nome": "Alvorada do Norte",
        "latitude": -14.4797,
        "longitude": -46.491,
        "uf": "GO"
    },
    {
        "nome": "Alvorada do Sul",
        "latitude": -22.7813,
        "longitude": -51.2297,
        "uf": "PR"
    },
    {
        "nome": "Amajari",
        "latitude": 3.64571,
        "longitude": -61.3692,
        "uf": "RR"
    },
    {
        "nome": "Amambai",
        "latitude": -23.1058,
        "longitude": -55.2253,
        "uf": "MS"
    },
    {
        "nome": "Amapá",
        "latitude": 2.05267,
        "longitude": -50.7957,
        "uf": "AP"
    },
    {
        "nome": "Amapá do Maranhão",
        "latitude": -1.67524,
        "longitude": -46.0024,
        "uf": "MA"
    },
    {
        "nome": "Amaporã",
        "latitude": -23.0943,
        "longitude": -52.7866,
        "uf": "PR"
    },
    {
        "nome": "Amaraji",
        "latitude": -8.37691,
        "longitude": -35.4501,
        "uf": "PE"
    },
    {
        "nome": "Amaral Ferrador",
        "latitude": -30.8756,
        "longitude": -52.2509,
        "uf": "RS"
    },
    {
        "nome": "Amaralina",
        "latitude": -13.9236,
        "longitude": -49.2962,
        "uf": "GO"
    },
    {
        "nome": "Amarante",
        "latitude": -6.24304,
        "longitude": -42.8433,
        "uf": "PI"
    },
    {
        "nome": "Amarante do Maranhão",
        "latitude": -5.56913,
        "longitude": -46.7473,
        "uf": "MA"
    },
    {
        "nome": "Amargosa",
        "latitude": -13.0215,
        "longitude": -39.602,
        "uf": "BA"
    },
    {
        "nome": "Amaturá",
        "latitude": -3.37455,
        "longitude": -68.2005,
        "uf": "AM"
    },
    {
        "nome": "Amélia Rodrigues",
        "latitude": -12.3914,
        "longitude": -38.7563,
        "uf": "BA"
    },
    {
        "nome": "América Dourada",
        "latitude": -11.4429,
        "longitude": -41.439,
        "uf": "BA"
    },
    {
        "nome": "Americana",
        "latitude": -22.7374,
        "longitude": -47.3331,
        "uf": "SP"
    },
    {
        "nome": "Americano do Brasil",
        "latitude": -16.2514,
        "longitude": -49.9831,
        "uf": "GO"
    },
    {
        "nome": "Américo Brasiliense",
        "latitude": -21.7288,
        "longitude": -48.1147,
        "uf": "SP"
    },
    {
        "nome": "Américo de Campos",
        "latitude": -20.2985,
        "longitude": -49.7359,
        "uf": "SP"
    },
    {
        "nome": "Ametista do Sul",
        "latitude": -27.3607,
        "longitude": -53.183,
        "uf": "RS"
    },
    {
        "nome": "Amontada",
        "latitude": -3.36017,
        "longitude": -39.8288,
        "uf": "CE"
    },
    {
        "nome": "Amorinópolis",
        "latitude": -16.6151,
        "longitude": -51.0919,
        "uf": "GO"
    },
    {
        "nome": "Amparo",
        "latitude": -7.55502,
        "longitude": -37.0628,
        "uf": "PB"
    },
    {
        "nome": "Amparo",
        "latitude": -22.7088,
        "longitude": -46.772,
        "uf": "SP"
    },
    {
        "nome": "Amparo de São Francisco",
        "latitude": -10.1348,
        "longitude": -36.935,
        "uf": "SE"
    },
    {
        "nome": "Amparo do Serra",
        "latitude": -20.5051,
        "longitude": -42.8009,
        "uf": "MG"
    },
    {
        "nome": "Ampére",
        "latitude": -25.9168,
        "longitude": -53.4686,
        "uf": "PR"
    },
    {
        "nome": "Anadia",
        "latitude": -9.68489,
        "longitude": -36.3078,
        "uf": "AL"
    },
    {
        "nome": "Anagé",
        "latitude": -14.6151,
        "longitude": -41.1356,
        "uf": "BA"
    },
    {
        "nome": "Anahy",
        "latitude": -24.6449,
        "longitude": -53.1332,
        "uf": "PR"
    },
    {
        "nome": "Anajás",
        "latitude": -0.996811,
        "longitude": -49.9354,
        "uf": "PA"
    },
    {
        "nome": "Anajatuba",
        "latitude": -3.26269,
        "longitude": -44.6126,
        "uf": "MA"
    },
    {
        "nome": "Analândia",
        "latitude": -22.1289,
        "longitude": -47.6619,
        "uf": "SP"
    },
    {
        "nome": "Anamã",
        "latitude": -3.56697,
        "longitude": -61.3963,
        "uf": "AM"
    },
    {
        "nome": "Ananás",
        "latitude": -6.36437,
        "longitude": -48.0735,
        "uf": "TO"
    },
    {
        "nome": "Ananindeua",
        "latitude": -1.36391,
        "longitude": -48.3743,
        "uf": "PA"
    },
    {
        "nome": "Anápolis",
        "latitude": -16.3281,
        "longitude": -48.953,
        "uf": "GO"
    },
    {
        "nome": "Anapu",
        "latitude": -3.46985,
        "longitude": -51.2003,
        "uf": "PA"
    },
    {
        "nome": "Anapurus",
        "latitude": -3.67577,
        "longitude": -43.1014,
        "uf": "MA"
    },
    {
        "nome": "Anastácio",
        "latitude": -20.4823,
        "longitude": -55.8104,
        "uf": "MS"
    },
    {
        "nome": "Anaurilândia",
        "latitude": -22.1852,
        "longitude": -52.7191,
        "uf": "MS"
    },
    {
        "nome": "Anchieta",
        "latitude": -26.5382,
        "longitude": -53.3319,
        "uf": "SC"
    },
    {
        "nome": "Anchieta",
        "latitude": -20.7955,
        "longitude": -40.6425,
        "uf": "ES"
    },
    {
        "nome": "Andaraí",
        "latitude": -12.8049,
        "longitude": -41.3297,
        "uf": "BA"
    },
    {
        "nome": "Andirá",
        "latitude": -23.0533,
        "longitude": -50.2304,
        "uf": "PR"
    },
    {
        "nome": "Andorinha",
        "latitude": -10.3482,
        "longitude": -39.8391,
        "uf": "BA"
    },
    {
        "nome": "Andradas",
        "latitude": -22.0695,
        "longitude": -46.5724,
        "uf": "MG"
    },
    {
        "nome": "Andradina",
        "latitude": -20.8948,
        "longitude": -51.3786,
        "uf": "SP"
    },
    {
        "nome": "André da Rocha",
        "latitude": -28.6283,
        "longitude": -51.5797,
        "uf": "RS"
    },
    {
        "nome": "Andrelândia",
        "latitude": -21.7411,
        "longitude": -44.3117,
        "uf": "MG"
    },
    {
        "nome": "Angatuba",
        "latitude": -23.4917,
        "longitude": -48.4139,
        "uf": "SP"
    },
    {
        "nome": "Angelândia",
        "latitude": -17.7279,
        "longitude": -42.2641,
        "uf": "MG"
    },
    {
        "nome": "Angélica",
        "latitude": -22.1527,
        "longitude": -53.7708,
        "uf": "MS"
    },
    {
        "nome": "Angelim",
        "latitude": -8.88429,
        "longitude": -36.2902,
        "uf": "PE"
    },
    {
        "nome": "Angelina",
        "latitude": -27.5704,
        "longitude": -48.9879,
        "uf": "SC"
    },
    {
        "nome": "Angical",
        "latitude": -12.0063,
        "longitude": -44.7003,
        "uf": "BA"
    },
    {
        "nome": "Angical do Piauí",
        "latitude": -6.08786,
        "longitude": -42.74,
        "uf": "PI"
    },
    {
        "nome": "Angico",
        "latitude": -6.39179,
        "longitude": -47.8611,
        "uf": "TO"
    },
    {
        "nome": "Angicos",
        "latitude": -5.65792,
        "longitude": -36.6094,
        "uf": "RN"
    },
    {
        "nome": "Angra dos Reis",
        "latitude": -23.0011,
        "longitude": -44.3196,
        "uf": "RJ"
    },
    {
        "nome": "Anguera",
        "latitude": -12.1462,
        "longitude": -39.2462,
        "uf": "BA"
    },
    {
        "nome": "Ângulo",
        "latitude": -23.1946,
        "longitude": -51.9154,
        "uf": "PR"
    },
    {
        "nome": "Anhanguera",
        "latitude": -18.3339,
        "longitude": -48.2204,
        "uf": "GO"
    },
    {
        "nome": "Anhembi",
        "latitude": -22.793,
        "longitude": -48.1336,
        "uf": "SP"
    },
    {
        "nome": "Anhumas",
        "latitude": -22.2934,
        "longitude": -51.3895,
        "uf": "SP"
    },
    {
        "nome": "Anicuns",
        "latitude": -16.4642,
        "longitude": -49.9617,
        "uf": "GO"
    },
    {
        "nome": "Anísio de Abreu",
        "latitude": -9.18564,
        "longitude": -43.0494,
        "uf": "PI"
    },
    {
        "nome": "Anita Garibaldi",
        "latitude": -27.6897,
        "longitude": -51.1271,
        "uf": "SC"
    },
    {
        "nome": "Anitápolis",
        "latitude": -27.9012,
        "longitude": -49.1316,
        "uf": "SC"
    },
    {
        "nome": "Anori",
        "latitude": -3.74603,
        "longitude": -61.6575,
        "uf": "AM"
    },
    {
        "nome": "Anta Gorda",
        "latitude": -28.9698,
        "longitude": -52.0102,
        "uf": "RS"
    },
    {
        "nome": "Antas",
        "latitude": -10.3856,
        "longitude": -38.3401,
        "uf": "BA"
    },
    {
        "nome": "Antonina",
        "latitude": -25.4386,
        "longitude": -48.7191,
        "uf": "PR"
    },
    {
        "nome": "Antonina do Norte",
        "latitude": -6.76919,
        "longitude": -39.987,
        "uf": "CE"
    },
    {
        "nome": "Antônio Almeida",
        "latitude": -7.21276,
        "longitude": -44.1889,
        "uf": "PI"
    },
    {
        "nome": "Antônio Cardoso",
        "latitude": -12.4335,
        "longitude": -39.1176,
        "uf": "BA"
    },
    {
        "nome": "Antônio Carlos",
        "latitude": -27.5191,
        "longitude": -48.766,
        "uf": "SC"
    },
    {
        "nome": "Antônio Carlos",
        "latitude": -21.321,
        "longitude": -43.7451,
        "uf": "MG"
    },
    {
        "nome": "Antônio Dias",
        "latitude": -19.6491,
        "longitude": -42.8732,
        "uf": "MG"
    },
    {
        "nome": "Antônio Gonçalves",
        "latitude": -10.5767,
        "longitude": -40.2785,
        "uf": "BA"
    },
    {
        "nome": "Antônio João",
        "latitude": -22.1927,
        "longitude": -55.9517,
        "uf": "MS"
    },
    {
        "nome": "Antônio Martins",
        "latitude": -6.21367,
        "longitude": -37.8834,
        "uf": "RN"
    },
    {
        "nome": "Antônio Olinto",
        "latitude": -25.9804,
        "longitude": -50.1972,
        "uf": "PR"
    },
    {
        "nome": "Antônio Prado",
        "latitude": -28.8565,
        "longitude": -51.2883,
        "uf": "RS"
    },
    {
        "nome": "Antônio Prado de Minas",
        "latitude": -21.0192,
        "longitude": -42.1109,
        "uf": "MG"
    },
    {
        "nome": "Aparecida",
        "latitude": -6.78466,
        "longitude": -38.0803,
        "uf": "PB"
    },
    {
        "nome": "Aparecida",
        "latitude": -22.8495,
        "longitude": -45.2325,
        "uf": "SP"
    },
    {
        "nome": "Aparecida d'Oeste",
        "latitude": -20.4487,
        "longitude": -50.8835,
        "uf": "SP"
    },
    {
        "nome": "Aparecida de Goiânia",
        "latitude": -16.8198,
        "longitude": -49.2469,
        "uf": "GO"
    },
    {
        "nome": "Aparecida do Rio Doce",
        "latitude": -18.2941,
        "longitude": -51.1516,
        "uf": "GO"
    },
    {
        "nome": "Aparecida do Rio Negro",
        "latitude": -9.94139,
        "longitude": -47.9638,
        "uf": "TO"
    },
    {
        "nome": "Aparecida do Taboado",
        "latitude": -20.0873,
        "longitude": -51.0961,
        "uf": "MS"
    },
    {
        "nome": "Aperibé",
        "latitude": -21.6252,
        "longitude": -42.1017,
        "uf": "RJ"
    },
    {
        "nome": "Apiacá",
        "latitude": -21.1523,
        "longitude": -41.5693,
        "uf": "ES"
    },
    {
        "nome": "Apiacás",
        "latitude": -9.53981,
        "longitude": -57.4587,
        "uf": "MT"
    },
    {
        "nome": "Apiaí",
        "latitude": -24.5108,
        "longitude": -48.8443,
        "uf": "SP"
    },
    {
        "nome": "Apicum-Açu",
        "latitude": -1.45862,
        "longitude": -45.0864,
        "uf": "MA"
    },
    {
        "nome": "Apiúna",
        "latitude": -27.0375,
        "longitude": -49.3885,
        "uf": "SC"
    },
    {
        "nome": "Apodi",
        "latitude": -5.65349,
        "longitude": -37.7946,
        "uf": "RN"
    },
    {
        "nome": "Aporá",
        "latitude": -11.6577,
        "longitude": -38.0814,
        "uf": "BA"
    },
    {
        "nome": "Aporé",
        "latitude": -18.9607,
        "longitude": -51.9232,
        "uf": "GO"
    },
    {
        "nome": "Apuarema",
        "latitude": -13.8542,
        "longitude": -39.7501,
        "uf": "BA"
    },
    {
        "nome": "Apucarana",
        "latitude": -23.55,
        "longitude": -51.4635,
        "uf": "PR"
    },
    {
        "nome": "Apuí",
        "latitude": -7.19409,
        "longitude": -59.896,
        "uf": "AM"
    },
    {
        "nome": "Apuiarés",
        "latitude": -3.94506,
        "longitude": -39.4359,
        "uf": "CE"
    },
    {
        "nome": "Aquidabã",
        "latitude": -10.278,
        "longitude": -37.0148,
        "uf": "SE"
    },
    {
        "nome": "Aquidauana",
        "latitude": -20.4666,
        "longitude": -55.7868,
        "uf": "MS"
    },
    {
        "nome": "Aquiraz",
        "latitude": -3.89929,
        "longitude": -38.3896,
        "uf": "CE"
    },
    {
        "nome": "Arabutã",
        "latitude": -27.1587,
        "longitude": -52.1423,
        "uf": "SC"
    },
    {
        "nome": "Araçagi",
        "latitude": -6.84374,
        "longitude": -35.3737,
        "uf": "PB"
    },
    {
        "nome": "Araçaí",
        "latitude": -19.1955,
        "longitude": -44.2493,
        "uf": "MG"
    },
    {
        "nome": "Aracaju",
        "latitude": -10.9091,
        "longitude": -37.0677,
        "uf": "SE"
    },
    {
        "nome": "Araçariguama",
        "latitude": -23.4366,
        "longitude": -47.0608,
        "uf": "SP"
    },
    {
        "nome": "Araças",
        "latitude": -12.22,
        "longitude": -38.2027,
        "uf": "BA"
    },
    {
        "nome": "Aracati",
        "latitude": -4.55826,
        "longitude": -37.7679,
        "uf": "CE"
    },
    {
        "nome": "Aracatu",
        "latitude": -14.428,
        "longitude": -41.4648,
        "uf": "BA"
    },
    {
        "nome": "Araçatuba",
        "latitude": -21.2076,
        "longitude": -50.4401,
        "uf": "SP"
    },
    {
        "nome": "Araci",
        "latitude": -11.3253,
        "longitude": -38.9584,
        "uf": "BA"
    },
    {
        "nome": "Aracitaba",
        "latitude": -21.3446,
        "longitude": -43.3736,
        "uf": "MG"
    },
    {
        "nome": "Araçoiaba",
        "latitude": -7.78391,
        "longitude": -35.0809,
        "uf": "PE"
    },
    {
        "nome": "Aracoiaba",
        "latitude": -4.36872,
        "longitude": -38.8125,
        "uf": "CE"
    },
    {
        "nome": "Araçoiaba da Serra",
        "latitude": -23.5029,
        "longitude": -47.6166,
        "uf": "SP"
    },
    {
        "nome": "Aracruz",
        "latitude": -19.82,
        "longitude": -40.2764,
        "uf": "ES"
    },
    {
        "nome": "Araçu",
        "latitude": -16.3563,
        "longitude": -49.6804,
        "uf": "GO"
    },
    {
        "nome": "Araçuaí",
        "latitude": -16.8523,
        "longitude": -42.0637,
        "uf": "MG"
    },
    {
        "nome": "Aragarças",
        "latitude": -15.8955,
        "longitude": -52.2372,
        "uf": "GO"
    },
    {
        "nome": "Aragoiânia",
        "latitude": -16.9087,
        "longitude": -49.4476,
        "uf": "GO"
    },
    {
        "nome": "Aragominas",
        "latitude": -7.16005,
        "longitude": -48.5291,
        "uf": "TO"
    },
    {
        "nome": "Araguacema",
        "latitude": -8.80755,
        "longitude": -49.5569,
        "uf": "TO"
    },
    {
        "nome": "Araguaçu",
        "latitude": -12.9289,
        "longitude": -49.8231,
        "uf": "TO"
    },
    {
        "nome": "Araguaiana",
        "latitude": -15.7291,
        "longitude": -51.8341,
        "uf": "MT"
    },
    {
        "nome": "Araguaína",
        "latitude": -7.19238,
        "longitude": -48.2044,
        "uf": "TO"
    },
    {
        "nome": "Araguainha",
        "latitude": -16.857,
        "longitude": -53.0318,
        "uf": "MT"
    },
    {
        "nome": "Araguanã",
        "latitude": -6.58225,
        "longitude": -48.6395,
        "uf": "TO"
    },
    {
        "nome": "Araguanã",
        "latitude": -2.94644,
        "longitude": -45.6589,
        "uf": "MA"
    },
    {
        "nome": "Araguapaz",
        "latitude": -15.0909,
        "longitude": -50.6315,
        "uf": "GO"
    },
    {
        "nome": "Araguari",
        "latitude": -18.6456,
        "longitude": -48.1934,
        "uf": "MG"
    },
    {
        "nome": "Araguatins",
        "latitude": -5.64659,
        "longitude": -48.1232,
        "uf": "TO"
    },
    {
        "nome": "Araioses",
        "latitude": -2.89091,
        "longitude": -41.905,
        "uf": "MA"
    },
    {
        "nome": "Aral Moreira",
        "latitude": -22.9385,
        "longitude": -55.6334,
        "uf": "MS"
    },
    {
        "nome": "Aramari",
        "latitude": -12.0884,
        "longitude": -38.4969,
        "uf": "BA"
    },
    {
        "nome": "Arambaré",
        "latitude": -30.9092,
        "longitude": -51.5046,
        "uf": "RS"
    },
    {
        "nome": "Arame",
        "latitude": -4.88347,
        "longitude": -46.0032,
        "uf": "MA"
    },
    {
        "nome": "Aramina",
        "latitude": -20.0882,
        "longitude": -47.7873,
        "uf": "SP"
    },
    {
        "nome": "Arandu",
        "latitude": -23.1386,
        "longitude": -49.0487,
        "uf": "SP"
    },
    {
        "nome": "Arantina",
        "latitude": -21.9102,
        "longitude": -44.2555,
        "uf": "MG"
    },
    {
        "nome": "Arapeí",
        "latitude": -22.6717,
        "longitude": -44.4441,
        "uf": "SP"
    },
    {
        "nome": "Arapiraca",
        "latitude": -9.75487,
        "longitude": -36.6615,
        "uf": "AL"
    },
    {
        "nome": "Arapoema",
        "latitude": -7.65463,
        "longitude": -49.0637,
        "uf": "TO"
    },
    {
        "nome": "Araponga",
        "latitude": -20.6686,
        "longitude": -42.5178,
        "uf": "MG"
    },
    {
        "nome": "Arapongas",
        "latitude": -23.4153,
        "longitude": -51.4259,
        "uf": "PR"
    },
    {
        "nome": "Araporã",
        "latitude": -18.4357,
        "longitude": -49.1847,
        "uf": "MG"
    },
    {
        "nome": "Arapoti",
        "latitude": -24.1548,
        "longitude": -49.8285,
        "uf": "PR"
    },
    {
        "nome": "Arapuã",
        "latitude": -24.3132,
        "longitude": -51.7856,
        "uf": "PR"
    },
    {
        "nome": "Arapuá",
        "latitude": -19.0268,
        "longitude": -46.1484,
        "uf": "MG"
    },
    {
        "nome": "Araputanga",
        "latitude": -15.4641,
        "longitude": -58.3425,
        "uf": "MT"
    },
    {
        "nome": "Araquari",
        "latitude": -26.3754,
        "longitude": -48.7188,
        "uf": "SC"
    },
    {
        "nome": "Arara",
        "latitude": -6.82813,
        "longitude": -35.7552,
        "uf": "PB"
    },
    {
        "nome": "Araranguá",
        "latitude": -28.9356,
        "longitude": -49.4918,
        "uf": "SC"
    },
    {
        "nome": "Araraquara",
        "latitude": -21.7845,
        "longitude": -48.178,
        "uf": "SP"
    },
    {
        "nome": "Araras",
        "latitude": -22.3572,
        "longitude": -47.3842,
        "uf": "SP"
    },
    {
        "nome": "Ararendá",
        "latitude": -4.74567,
        "longitude": -40.831,
        "uf": "CE"
    },
    {
        "nome": "Arari",
        "latitude": -3.45214,
        "longitude": -44.7665,
        "uf": "MA"
    },
    {
        "nome": "Araricá",
        "latitude": -29.6168,
        "longitude": -50.9291,
        "uf": "RS"
    },
    {
        "nome": "Araripe",
        "latitude": -7.21319,
        "longitude": -40.1359,
        "uf": "CE"
    },
    {
        "nome": "Araripina",
        "latitude": -7.57073,
        "longitude": -40.494,
        "uf": "PE"
    },
    {
        "nome": "Araruama",
        "latitude": -22.8697,
        "longitude": -42.3326,
        "uf": "RJ"
    },
    {
        "nome": "Araruna",
        "latitude": -23.9315,
        "longitude": -52.5021,
        "uf": "PR"
    },
    {
        "nome": "Araruna",
        "latitude": -6.54848,
        "longitude": -35.7498,
        "uf": "PB"
    },
    {
        "nome": "Arataca",
        "latitude": -15.2651,
        "longitude": -39.419,
        "uf": "BA"
    },
    {
        "nome": "Aratiba",
        "latitude": -27.3978,
        "longitude": -52.2975,
        "uf": "RS"
    },
    {
        "nome": "Aratuba",
        "latitude": -4.41229,
        "longitude": -39.0471,
        "uf": "CE"
    },
    {
        "nome": "Aratuípe",
        "latitude": -13.0716,
        "longitude": -39.0038,
        "uf": "BA"
    },
    {
        "nome": "Arauá",
        "latitude": -11.2614,
        "longitude": -37.6201,
        "uf": "SE"
    },
    {
        "nome": "Araucária",
        "latitude": -25.5859,
        "longitude": -49.4047,
        "uf": "PR"
    },
    {
        "nome": "Araújos",
        "latitude": -19.9405,
        "longitude": -45.1671,
        "uf": "MG"
    },
    {
        "nome": "Araxá",
        "latitude": -19.5902,
        "longitude": -46.9438,
        "uf": "MG"
    },
    {
        "nome": "Arceburgo",
        "latitude": -21.359,
        "longitude": -46.9401,
        "uf": "MG"
    },
    {
        "nome": "Arco-Íris",
        "latitude": -21.7728,
        "longitude": -50.466,
        "uf": "SP"
    },
    {
        "nome": "Arcos",
        "latitude": -20.2863,
        "longitude": -45.5373,
        "uf": "MG"
    },
    {
        "nome": "Arcoverde",
        "latitude": -8.41519,
        "longitude": -37.0577,
        "uf": "PE"
    },
    {
        "nome": "Areado",
        "latitude": -21.3572,
        "longitude": -46.1421,
        "uf": "MG"
    },
    {
        "nome": "Areal",
        "latitude": -22.2283,
        "longitude": -43.1118,
        "uf": "RJ"
    },
    {
        "nome": "Arealva",
        "latitude": -22.031,
        "longitude": -48.9135,
        "uf": "SP"
    },
    {
        "nome": "Areia",
        "latitude": -6.96396,
        "longitude": -35.6977,
        "uf": "PB"
    },
    {
        "nome": "Areia Branca",
        "latitude": -4.95254,
        "longitude": -37.1252,
        "uf": "RN"
    },
    {
        "nome": "Areia Branca",
        "latitude": -10.758,
        "longitude": -37.3251,
        "uf": "SE"
    },
    {
        "nome": "Areia de Baraúnas",
        "latitude": -7.11702,
        "longitude": -36.9404,
        "uf": "PB"
    },
    {
        "nome": "Areial",
        "latitude": -7.04789,
        "longitude": -35.9313,
        "uf": "PB"
    },
    {
        "nome": "Areias",
        "latitude": -22.5786,
        "longitude": -44.6992,
        "uf": "SP"
    },
    {
        "nome": "Areiópolis",
        "latitude": -22.6672,
        "longitude": -48.6681,
        "uf": "SP"
    },
    {
        "nome": "Arenápolis",
        "latitude": -14.4472,
        "longitude": -56.8437,
        "uf": "MT"
    },
    {
        "nome": "Arenópolis",
        "latitude": -16.3837,
        "longitude": -51.5563,
        "uf": "GO"
    },
    {
        "nome": "Arês",
        "latitude": -6.18831,
        "longitude": -35.1608,
        "uf": "RN"
    },
    {
        "nome": "Argirita",
        "latitude": -21.6083,
        "longitude": -42.8292,
        "uf": "MG"
    },
    {
        "nome": "Aricanduva",
        "latitude": -17.8666,
        "longitude": -42.5533,
        "uf": "MG"
    },
    {
        "nome": "Arinos",
        "latitude": -15.9187,
        "longitude": -46.1043,
        "uf": "MG"
    },
    {
        "nome": "Aripuanã",
        "latitude": -10.1723,
        "longitude": -59.4568,
        "uf": "MT"
    },
    {
        "nome": "Ariquemes",
        "latitude": -9.90571,
        "longitude": -63.0325,
        "uf": "RO"
    },
    {
        "nome": "Ariranha",
        "latitude": -21.1872,
        "longitude": -48.7904,
        "uf": "SP"
    },
    {
        "nome": "Ariranha do Ivaí",
        "latitude": -24.3857,
        "longitude": -51.5839,
        "uf": "PR"
    },
    {
        "nome": "Armação dos Búzios",
        "latitude": -22.7528,
        "longitude": -41.8846,
        "uf": "RJ"
    },
    {
        "nome": "Armazém",
        "latitude": -28.2448,
        "longitude": -49.0215,
        "uf": "SC"
    },
    {
        "nome": "Arneiroz",
        "latitude": -6.3165,
        "longitude": -40.1653,
        "uf": "CE"
    },
    {
        "nome": "Aroazes",
        "latitude": -6.11022,
        "longitude": -41.7822,
        "uf": "PI"
    },
    {
        "nome": "Aroeiras",
        "latitude": -7.54473,
        "longitude": -35.7066,
        "uf": "PB"
    },
    {
        "nome": "Aroeiras do Itaim",
        "latitude": -7.24502,
        "longitude": -41.5325,
        "uf": "PI"
    },
    {
        "nome": "Arraial",
        "latitude": -6.65075,
        "longitude": -42.5418,
        "uf": "PI"
    },
    {
        "nome": "Arraial do Cabo",
        "latitude": -22.9774,
        "longitude": -42.0267,
        "uf": "RJ"
    },
    {
        "nome": "Arraias",
        "latitude": -12.9287,
        "longitude": -46.9359,
        "uf": "TO"
    },
    {
        "nome": "Arroio do Meio",
        "latitude": -29.4014,
        "longitude": -51.9557,
        "uf": "RS"
    },
    {
        "nome": "Arroio do Padre",
        "latitude": -31.4389,
        "longitude": -52.4246,
        "uf": "RS"
    },
    {
        "nome": "Arroio do Sal",
        "latitude": -29.5439,
        "longitude": -49.8895,
        "uf": "RS"
    },
    {
        "nome": "Arroio do Tigre",
        "latitude": -29.3348,
        "longitude": -53.0966,
        "uf": "RS"
    },
    {
        "nome": "Arroio dos Ratos",
        "latitude": -30.0875,
        "longitude": -51.7275,
        "uf": "RS"
    },
    {
        "nome": "Arroio Grande",
        "latitude": -32.2327,
        "longitude": -53.0862,
        "uf": "RS"
    },
    {
        "nome": "Arroio Trinta",
        "latitude": -26.9257,
        "longitude": -51.3407,
        "uf": "SC"
    },
    {
        "nome": "Artur Nogueira",
        "latitude": -22.5727,
        "longitude": -47.1727,
        "uf": "SP"
    },
    {
        "nome": "Aruanã",
        "latitude": -14.9166,
        "longitude": -51.075,
        "uf": "GO"
    },
    {
        "nome": "Arujá",
        "latitude": -23.3965,
        "longitude": -46.32,
        "uf": "SP"
    },
    {
        "nome": "Arvoredo",
        "latitude": -27.0748,
        "longitude": -52.4543,
        "uf": "SC"
    },
    {
        "nome": "Arvorezinha",
        "latitude": -28.8737,
        "longitude": -52.1781,
        "uf": "RS"
    },
    {
        "nome": "Ascurra",
        "latitude": -26.9548,
        "longitude": -49.3783,
        "uf": "SC"
    },
    {
        "nome": "Aspásia",
        "latitude": -20.16,
        "longitude": -50.728,
        "uf": "SP"
    },
    {
        "nome": "Assaí",
        "latitude": -23.3697,
        "longitude": -50.8459,
        "uf": "PR"
    },
    {
        "nome": "Assaré",
        "latitude": -6.8669,
        "longitude": -39.8689,
        "uf": "CE"
    },
    {
        "nome": "Assis",
        "latitude": -22.66,
        "longitude": -50.4183,
        "uf": "SP"
    },
    {
        "nome": "Assis Brasil",
        "latitude": -10.9298,
        "longitude": -69.5738,
        "uf": "AC"
    },
    {
        "nome": "Assis Chateaubriand",
        "latitude": -24.4168,
        "longitude": -53.5213,
        "uf": "PR"
    },
    {
        "nome": "Assunção",
        "latitude": -7.07231,
        "longitude": -36.725,
        "uf": "PB"
    },
    {
        "nome": "Assunção do Piauí",
        "latitude": -5.865,
        "longitude": -41.0389,
        "uf": "PI"
    },
    {
        "nome": "Astolfo Dutra",
        "latitude": -21.3184,
        "longitude": -42.8572,
        "uf": "MG"
    },
    {
        "nome": "Astorga",
        "latitude": -23.2318,
        "longitude": -51.6668,
        "uf": "PR"
    },
    {
        "nome": "Atalaia",
        "latitude": -23.1517,
        "longitude": -52.0551,
        "uf": "PR"
    },
    {
        "nome": "Atalaia",
        "latitude": -9.5119,
        "longitude": -36.0086,
        "uf": "AL"
    },
    {
        "nome": "Atalaia do Norte",
        "latitude": -4.37055,
        "longitude": -70.1967,
        "uf": "AM"
    },
    {
        "nome": "Atalanta",
        "latitude": -27.4219,
        "longitude": -49.7789,
        "uf": "SC"
    },
    {
        "nome": "Ataléia",
        "latitude": -18.0438,
        "longitude": -41.1149,
        "uf": "MG"
    },
    {
        "nome": "Atibaia",
        "latitude": -23.1171,
        "longitude": -46.5563,
        "uf": "SP"
    },
    {
        "nome": "Atilio Vivacqua",
        "latitude": -20.913,
        "longitude": -41.1986,
        "uf": "ES"
    },
    {
        "nome": "Augustinópolis",
        "latitude": -5.46863,
        "longitude": -47.8863,
        "uf": "TO"
    },
    {
        "nome": "Augusto Corrêa",
        "latitude": -1.05109,
        "longitude": -46.6147,
        "uf": "PA"
    },
    {
        "nome": "Augusto de Lima",
        "latitude": -18.0997,
        "longitude": -44.2655,
        "uf": "MG"
    },
    {
        "nome": "Augusto Pestana",
        "latitude": -28.5172,
        "longitude": -53.9883,
        "uf": "RS"
    },
    {
        "nome": "Augusto Severo (Campo Grande)",
        "latitude": -5.86206,
        "longitude": -37.3135,
        "uf": "RN"
    },
    {
        "nome": "Áurea",
        "latitude": -27.6936,
        "longitude": -52.0505,
        "uf": "RS"
    },
    {
        "nome": "Aurelino Leal",
        "latitude": -14.321,
        "longitude": -39.329,
        "uf": "BA"
    },
    {
        "nome": "Auriflama",
        "latitude": -20.6836,
        "longitude": -50.5572,
        "uf": "SP"
    },
    {
        "nome": "Aurilândia",
        "latitude": -16.6773,
        "longitude": -50.4641,
        "uf": "GO"
    },
    {
        "nome": "Aurora",
        "latitude": -6.93349,
        "longitude": -38.9742,
        "uf": "CE"
    },
    {
        "nome": "Aurora",
        "latitude": -27.3098,
        "longitude": -49.6295,
        "uf": "SC"
    },
    {
        "nome": "Aurora do Pará",
        "latitude": -2.14898,
        "longitude": -47.5677,
        "uf": "PA"
    },
    {
        "nome": "Aurora do Tocantins",
        "latitude": -12.7105,
        "longitude": -46.4076,
        "uf": "TO"
    },
    {
        "nome": "Autazes",
        "latitude": -3.58574,
        "longitude": -59.1256,
        "uf": "AM"
    },
    {
        "nome": "Avaí",
        "latitude": -22.1514,
        "longitude": -49.3356,
        "uf": "SP"
    },
    {
        "nome": "Avanhandava",
        "latitude": -21.4584,
        "longitude": -49.9509,
        "uf": "SP"
    },
    {
        "nome": "Avaré",
        "latitude": -23.1067,
        "longitude": -48.9251,
        "uf": "SP"
    },
    {
        "nome": "Aveiro",
        "latitude": -3.60841,
        "longitude": -55.3199,
        "uf": "PA"
    },
    {
        "nome": "Avelino Lopes",
        "latitude": -10.1345,
        "longitude": -43.9563,
        "uf": "PI"
    },
    {
        "nome": "Avelinópolis",
        "latitude": -16.4672,
        "longitude": -49.7579,
        "uf": "GO"
    },
    {
        "nome": "Axixá",
        "latitude": -2.83939,
        "longitude": -44.062,
        "uf": "MA"
    },
    {
        "nome": "Axixá do Tocantins",
        "latitude": -5.61275,
        "longitude": -47.7701,
        "uf": "TO"
    },
    {
        "nome": "Babaçulândia",
        "latitude": -7.20923,
        "longitude": -47.7613,
        "uf": "TO"
    },
    {
        "nome": "Bacabal",
        "latitude": -4.22447,
        "longitude": -44.7832,
        "uf": "MA"
    },
    {
        "nome": "Bacabeira",
        "latitude": -2.96452,
        "longitude": -44.3164,
        "uf": "MA"
    },
    {
        "nome": "Bacuri",
        "latitude": -1.6965,
        "longitude": -45.1328,
        "uf": "MA"
    },
    {
        "nome": "Bacurituba",
        "latitude": -2.71,
        "longitude": -44.7329,
        "uf": "MA"
    },
    {
        "nome": "Bady Bassitt",
        "latitude": -20.9197,
        "longitude": -49.4385,
        "uf": "SP"
    },
    {
        "nome": "Baependi",
        "latitude": -21.957,
        "longitude": -44.8874,
        "uf": "MG"
    },
    {
        "nome": "Bagé",
        "latitude": -31.3297,
        "longitude": -54.0999,
        "uf": "RS"
    },
    {
        "nome": "Bagre",
        "latitude": -1.90057,
        "longitude": -50.1987,
        "uf": "PA"
    },
    {
        "nome": "Baía da Traição",
        "latitude": -6.69209,
        "longitude": -34.9381,
        "uf": "PB"
    },
    {
        "nome": "Baía Formosa",
        "latitude": -6.37161,
        "longitude": -35.0033,
        "uf": "RN"
    },
    {
        "nome": "Baianópolis",
        "latitude": -12.3016,
        "longitude": -44.5388,
        "uf": "BA"
    },
    {
        "nome": "Baião",
        "latitude": -2.79021,
        "longitude": -49.6694,
        "uf": "PA"
    },
    {
        "nome": "Baixa Grande",
        "latitude": -11.9519,
        "longitude": -40.169,
        "uf": "BA"
    },
    {
        "nome": "Baixa Grande do Ribeiro",
        "latitude": -7.84903,
        "longitude": -45.219,
        "uf": "PI"
    },
    {
        "nome": "Baixio",
        "latitude": -6.71945,
        "longitude": -38.7134,
        "uf": "CE"
    },
    {
        "nome": "Baixo Guandu",
        "latitude": -19.5213,
        "longitude": -41.0109,
        "uf": "ES"
    },
    {
        "nome": "Balbinos",
        "latitude": -21.8963,
        "longitude": -49.3619,
        "uf": "SP"
    },
    {
        "nome": "Baldim",
        "latitude": -19.2832,
        "longitude": -43.9613,
        "uf": "MG"
    },
    {
        "nome": "Baliza",
        "latitude": -16.1966,
        "longitude": -52.5393,
        "uf": "GO"
    },
    {
        "nome": "Balneário Arroio do Silva",
        "latitude": -28.9806,
        "longitude": -49.4237,
        "uf": "SC"
    },
    {
        "nome": "Balneário Barra do Sul",
        "latitude": -26.4597,
        "longitude": -48.6123,
        "uf": "SC"
    },
    {
        "nome": "Balneário Camboriú",
        "latitude": -26.9926,
        "longitude": -48.6352,
        "uf": "SC"
    },
    {
        "nome": "Balneário Gaivota",
        "latitude": -29.1527,
        "longitude": -49.5841,
        "uf": "SC"
    },
    {
        "nome": "Balneário Piçarras",
        "latitude": -26.7639,
        "longitude": -48.6717,
        "uf": "SC"
    },
    {
        "nome": "Balneário Pinhal",
        "latitude": -30.2419,
        "longitude": -50.2337,
        "uf": "RS"
    },
    {
        "nome": "Balneário Rincão",
        "latitude": -28.8314,
        "longitude": -49.2352,
        "uf": "SC"
    },
    {
        "nome": "Balsa Nova",
        "latitude": -25.5804,
        "longitude": -49.6291,
        "uf": "PR"
    },
    {
        "nome": "Bálsamo",
        "latitude": -20.7348,
        "longitude": -49.5865,
        "uf": "SP"
    },
    {
        "nome": "Balsas",
        "latitude": -7.53214,
        "longitude": -46.0372,
        "uf": "MA"
    },
    {
        "nome": "Bambuí",
        "latitude": -20.0166,
        "longitude": -45.9754,
        "uf": "MG"
    },
    {
        "nome": "Banabuiú",
        "latitude": -5.30454,
        "longitude": -38.9132,
        "uf": "CE"
    },
    {
        "nome": "Bananal",
        "latitude": -22.6819,
        "longitude": -44.3281,
        "uf": "SP"
    },
    {
        "nome": "Bananeiras",
        "latitude": -6.74775,
        "longitude": -35.6246,
        "uf": "PB"
    },
    {
        "nome": "Bandeira",
        "latitude": -15.8783,
        "longitude": -40.5622,
        "uf": "MG"
    },
    {
        "nome": "Bandeira do Sul",
        "latitude": -21.7308,
        "longitude": -46.3833,
        "uf": "MG"
    },
    {
        "nome": "Bandeirante",
        "latitude": -26.7705,
        "longitude": -53.6413,
        "uf": "SC"
    },
    {
        "nome": "Bandeirantes",
        "latitude": -19.9275,
        "longitude": -54.3585,
        "uf": "MS"
    },
    {
        "nome": "Bandeirantes",
        "latitude": -23.1078,
        "longitude": -50.3704,
        "uf": "PR"
    },
    {
        "nome": "Bandeirantes do Tocantins",
        "latitude": -7.75612,
        "longitude": -48.5836,
        "uf": "TO"
    },
    {
        "nome": "Bannach",
        "latitude": -7.34779,
        "longitude": -50.3959,
        "uf": "PA"
    },
    {
        "nome": "Banzaê",
        "latitude": -10.5788,
        "longitude": -38.6212,
        "uf": "BA"
    },
    {
        "nome": "Barão",
        "latitude": -29.3725,
        "longitude": -51.4949,
        "uf": "RS"
    },
    {
        "nome": "Barão de Antonina",
        "latitude": -23.6284,
        "longitude": -49.5634,
        "uf": "SP"
    },
    {
        "nome": "Barão de Cocais",
        "latitude": -19.9389,
        "longitude": -43.4755,
        "uf": "MG"
    },
    {
        "nome": "Barão de Cotegipe",
        "latitude": -27.6208,
        "longitude": -52.3798,
        "uf": "RS"
    },
    {
        "nome": "Barão de Grajaú",
        "latitude": -6.74463,
        "longitude": -43.0261,
        "uf": "MA"
    },
    {
        "nome": "Barão de Melgaço",
        "latitude": -16.2067,
        "longitude": -55.9623,
        "uf": "MT"
    },
    {
        "nome": "Barão de Monte Alto",
        "latitude": -21.2444,
        "longitude": -42.2372,
        "uf": "MG"
    },
    {
        "nome": "Barão do Triunfo",
        "latitude": -30.3891,
        "longitude": -51.7384,
        "uf": "RS"
    },
    {
        "nome": "Baraúna",
        "latitude": -5.06977,
        "longitude": -37.6129,
        "uf": "RN"
    },
    {
        "nome": "Baraúna",
        "latitude": -6.63484,
        "longitude": -36.2601,
        "uf": "PB"
    },
    {
        "nome": "Barbacena",
        "latitude": -21.2214,
        "longitude": -43.7703,
        "uf": "MG"
    },
    {
        "nome": "Barbalha",
        "latitude": -7.2982,
        "longitude": -39.3021,
        "uf": "CE"
    },
    {
        "nome": "Barbosa",
        "latitude": -21.2657,
        "longitude": -49.9518,
        "uf": "SP"
    },
    {
        "nome": "Barbosa Ferraz",
        "latitude": -24.0334,
        "longitude": -52.004,
        "uf": "PR"
    },
    {
        "nome": "Barcarena",
        "latitude": -1.51187,
        "longitude": -48.6195,
        "uf": "PA"
    },
    {
        "nome": "Barcelona",
        "latitude": -5.94284,
        "longitude": -35.9247,
        "uf": "RN"
    },
    {
        "nome": "Barcelos",
        "latitude": -0.983373,
        "longitude": -62.9311,
        "uf": "AM"
    },
    {
        "nome": "Bariri",
        "latitude": -22.073,
        "longitude": -48.7438,
        "uf": "SP"
    },
    {
        "nome": "Barra",
        "latitude": -11.0859,
        "longitude": -43.1459,
        "uf": "BA"
    },
    {
        "nome": "Barra Bonita",
        "latitude": -26.654,
        "longitude": -53.44,
        "uf": "SC"
    },
    {
        "nome": "Barra Bonita",
        "latitude": -22.4909,
        "longitude": -48.5583,
        "uf": "SP"
    },
    {
        "nome": "Barra D'Alcântara",
        "latitude": -6.51645,
        "longitude": -42.1146,
        "uf": "PI"
    },
    {
        "nome": "Barra da Estiva",
        "latitude": -13.6237,
        "longitude": -41.3347,
        "uf": "BA"
    },
    {
        "nome": "Barra de Guabiraba",
        "latitude": -8.42075,
        "longitude": -35.6585,
        "uf": "PE"
    },
    {
        "nome": "Barra de Santa Rosa",
        "latitude": -6.71816,
        "longitude": -36.0671,
        "uf": "PB"
    },
    {
        "nome": "Barra de Santana",
        "latitude": -7.51809,
        "longitude": -35.9913,
        "uf": "PB"
    },
    {
        "nome": "Barra de Santo Antônio",
        "latitude": -9.4023,
        "longitude": -35.5101,
        "uf": "AL"
    },
    {
        "nome": "Barra de São Francisco",
        "latitude": -18.7548,
        "longitude": -40.8965,
        "uf": "ES"
    },
    {
        "nome": "Barra de São Miguel",
        "latitude": -7.74603,
        "longitude": -36.3209,
        "uf": "PB"
    },
    {
        "nome": "Barra de São Miguel",
        "latitude": -9.83842,
        "longitude": -35.9057,
        "uf": "AL"
    },
    {
        "nome": "Barra do Bugres",
        "latitude": -15.0702,
        "longitude": -57.1878,
        "uf": "MT"
    },
    {
        "nome": "Barra do Chapéu",
        "latitude": -24.4722,
        "longitude": -49.0238,
        "uf": "SP"
    },
    {
        "nome": "Barra do Choça",
        "latitude": -14.8654,
        "longitude": -40.5791,
        "uf": "BA"
    },
    {
        "nome": "Barra do Corda",
        "latitude": -5.49682,
        "longitude": -45.2485,
        "uf": "MA"
    },
    {
        "nome": "Barra do Garças",
        "latitude": -15.8804,
        "longitude": -52.264,
        "uf": "MT"
    },
    {
        "nome": "Barra do Guarita",
        "latitude": -27.1927,
        "longitude": -53.7109,
        "uf": "RS"
    },
    {
        "nome": "Barra do Jacaré",
        "latitude": -23.116,
        "longitude": -50.1842,
        "uf": "PR"
    },
    {
        "nome": "Barra do Mendes",
        "latitude": -11.81,
        "longitude": -42.059,
        "uf": "BA"
    },
    {
        "nome": "Barra do Ouro",
        "latitude": -7.69593,
        "longitude": -47.6776,
        "uf": "TO"
    },
    {
        "nome": "Barra do Piraí",
        "latitude": -22.4715,
        "longitude": -43.8269,
        "uf": "RJ"
    },
    {
        "nome": "Barra do Quaraí",
        "latitude": -30.2029,
        "longitude": -57.5497,
        "uf": "RS"
    },
    {
        "nome": "Barra do Ribeiro",
        "latitude": -30.2939,
        "longitude": -51.3014,
        "uf": "RS"
    },
    {
        "nome": "Barra do Rio Azul",
        "latitude": -27.4069,
        "longitude": -52.4084,
        "uf": "RS"
    },
    {
        "nome": "Barra do Rocha",
        "latitude": -14.2,
        "longitude": -39.5991,
        "uf": "BA"
    },
    {
        "nome": "Barra do Turvo",
        "latitude": -24.759,
        "longitude": -48.5013,
        "uf": "SP"
    },
    {
        "nome": "Barra dos Coqueiros",
        "latitude": -10.8996,
        "longitude": -37.0323,
        "uf": "SE"
    },
    {
        "nome": "Barra Funda",
        "latitude": -27.9205,
        "longitude": -53.0391,
        "uf": "RS"
    },
    {
        "nome": "Barra Longa",
        "latitude": -20.2869,
        "longitude": -43.0402,
        "uf": "MG"
    },
    {
        "nome": "Barra Mansa",
        "latitude": -22.5481,
        "longitude": -44.1752,
        "uf": "RJ"
    },
    {
        "nome": "Barra Velha",
        "latitude": -26.637,
        "longitude": -48.6933,
        "uf": "SC"
    },
    {
        "nome": "Barracão",
        "latitude": -27.6739,
        "longitude": -51.4585,
        "uf": "RS"
    },
    {
        "nome": "Barracão",
        "latitude": -26.2502,
        "longitude": -53.6324,
        "uf": "PR"
    },
    {
        "nome": "Barras",
        "latitude": -4.24468,
        "longitude": -42.2922,
        "uf": "PI"
    },
    {
        "nome": "Barreira",
        "latitude": -4.28921,
        "longitude": -38.6429,
        "uf": "CE"
    },
    {
        "nome": "Barreiras",
        "latitude": -12.1439,
        "longitude": -44.9968,
        "uf": "BA"
    },
    {
        "nome": "Barreiras do Piauí",
        "latitude": -9.9296,
        "longitude": -45.4702,
        "uf": "PI"
    },
    {
        "nome": "Barreirinha",
        "latitude": -2.79886,
        "longitude": -57.0679,
        "uf": "AM"
    },
    {
        "nome": "Barreirinhas",
        "latitude": -2.75863,
        "longitude": -42.8232,
        "uf": "MA"
    },
    {
        "nome": "Barreiros",
        "latitude": -8.81605,
        "longitude": -35.1832,
        "uf": "PE"
    },
    {
        "nome": "Barretos",
        "latitude": -20.5531,
        "longitude": -48.5698,
        "uf": "SP"
    },
    {
        "nome": "Barrinha",
        "latitude": -21.1864,
        "longitude": -48.1636,
        "uf": "SP"
    },
    {
        "nome": "Barro",
        "latitude": -7.17188,
        "longitude": -38.7741,
        "uf": "CE"
    },
    {
        "nome": "Barro Alto",
        "latitude": -11.7605,
        "longitude": -41.9054,
        "uf": "BA"
    },
    {
        "nome": "Barro Alto",
        "latitude": -14.9658,
        "longitude": -48.9086,
        "uf": "GO"
    },
    {
        "nome": "Barro Duro",
        "latitude": -5.81673,
        "longitude": -42.5147,
        "uf": "PI"
    },
    {
        "nome": "Barro Preto",
        "latitude": -14.7948,
        "longitude": -39.476,
        "uf": "BA"
    },
    {
        "nome": "Barrocas",
        "latitude": -11.5272,
        "longitude": -39.0776,
        "uf": "BA"
    },
    {
        "nome": "Barrolândia",
        "latitude": -9.83404,
        "longitude": -48.7252,
        "uf": "TO"
    },
    {
        "nome": "Barroquinha",
        "latitude": -3.02051,
        "longitude": -41.1358,
        "uf": "CE"
    },
    {
        "nome": "Barros Cassal",
        "latitude": -29.0947,
        "longitude": -52.5836,
        "uf": "RS"
    },
    {
        "nome": "Barroso",
        "latitude": -21.1907,
        "longitude": -43.972,
        "uf": "MG"
    },
    {
        "nome": "Barueri",
        "latitude": -23.5057,
        "longitude": -46.879,
        "uf": "SP"
    },
    {
        "nome": "Bastos",
        "latitude": -21.921,
        "longitude": -50.7357,
        "uf": "SP"
    },
    {
        "nome": "Bataguassu",
        "latitude": -21.7159,
        "longitude": -52.4221,
        "uf": "MS"
    },
    {
        "nome": "Batalha",
        "latitude": -4.0223,
        "longitude": -42.0787,
        "uf": "PI"
    },
    {
        "nome": "Batalha",
        "latitude": -9.6742,
        "longitude": -37.133,
        "uf": "AL"
    },
    {
        "nome": "Batatais",
        "latitude": -20.8929,
        "longitude": -47.5921,
        "uf": "SP"
    },
    {
        "nome": "Batayporã",
        "latitude": -22.2944,
        "longitude": -53.2705,
        "uf": "MS"
    },
    {
        "nome": "Baturité",
        "latitude": -4.32598,
        "longitude": -38.8812,
        "uf": "CE"
    },
    {
        "nome": "Bauru",
        "latitude": -22.3246,
        "longitude": -49.0871,
        "uf": "SP"
    },
    {
        "nome": "Bayeux",
        "latitude": -7.1238,
        "longitude": -34.9293,
        "uf": "PB"
    },
    {
        "nome": "Bebedouro",
        "latitude": -20.9491,
        "longitude": -48.4791,
        "uf": "SP"
    },
    {
        "nome": "Beberibe",
        "latitude": -4.17741,
        "longitude": -38.1271,
        "uf": "CE"
    },
    {
        "nome": "Bela Cruz",
        "latitude": -3.04996,
        "longitude": -40.1671,
        "uf": "CE"
    },
    {
        "nome": "Bela Vista",
        "latitude": -22.1073,
        "longitude": -56.5263,
        "uf": "MS"
    },
    {
        "nome": "Bela Vista da Caroba",
        "latitude": -25.8842,
        "longitude": -53.6725,
        "uf": "PR"
    },
    {
        "nome": "Bela Vista de Goiás",
        "latitude": -16.9693,
        "longitude": -48.9513,
        "uf": "GO"
    },
    {
        "nome": "Bela Vista de Minas",
        "latitude": -19.8302,
        "longitude": -43.0922,
        "uf": "MG"
    },
    {
        "nome": "Bela Vista do Maranhão",
        "latitude": -3.72618,
        "longitude": -45.3075,
        "uf": "MA"
    },
    {
        "nome": "Bela Vista do Paraíso",
        "latitude": -22.9937,
        "longitude": -51.1927,
        "uf": "PR"
    },
    {
        "nome": "Bela Vista do Piauí",
        "latitude": -7.98809,
        "longitude": -41.8675,
        "uf": "PI"
    },
    {
        "nome": "Bela Vista do Toldo",
        "latitude": -26.2746,
        "longitude": -50.4664,
        "uf": "SC"
    },
    {
        "nome": "Belágua",
        "latitude": -3.15485,
        "longitude": -43.5122,
        "uf": "MA"
    },
    {
        "nome": "Belém",
        "latitude": -1.4554,
        "longitude": -48.4898,
        "uf": "PA"
    },
    {
        "nome": "Belém",
        "latitude": -6.74261,
        "longitude": -35.5166,
        "uf": "PB"
    },
    {
        "nome": "Belém",
        "latitude": -9.57047,
        "longitude": -36.4904,
        "uf": "AL"
    },
    {
        "nome": "Belém de Maria",
        "latitude": -8.62504,
        "longitude": -35.8335,
        "uf": "PE"
    },
    {
        "nome": "Belém do Brejo do Cruz",
        "latitude": -6.18515,
        "longitude": -37.5348,
        "uf": "PB"
    },
    {
        "nome": "Belém do Piauí",
        "latitude": -7.36652,
        "longitude": -40.9688,
        "uf": "PI"
    },
    {
        "nome": "Belém do São Francisco",
        "latitude": -8.75046,
        "longitude": -38.9623,
        "uf": "PE"
    },
    {
        "nome": "Belford Roxo",
        "latitude": -22.764,
        "longitude": -43.3992,
        "uf": "RJ"
    },
    {
        "nome": "Belmiro Braga",
        "latitude": -21.944,
        "longitude": -43.4084,
        "uf": "MG"
    },
    {
        "nome": "Belmonte",
        "latitude": -26.843,
        "longitude": -53.5758,
        "uf": "SC"
    },
    {
        "nome": "Belmonte",
        "latitude": -15.8608,
        "longitude": -38.8758,
        "uf": "BA"
    },
    {
        "nome": "Belo Campo",
        "latitude": -15.0334,
        "longitude": -41.2652,
        "uf": "BA"
    },
    {
        "nome": "Belo Horizonte",
        "latitude": -19.9102,
        "longitude": -43.9266,
        "uf": "MG"
    },
    {
        "nome": "Belo Jardim",
        "latitude": -8.3313,
        "longitude": -36.4258,
        "uf": "PE"
    },
    {
        "nome": "Belo Monte",
        "latitude": -9.82272,
        "longitude": -37.277,
        "uf": "AL"
    },
    {
        "nome": "Belo Oriente",
        "latitude": -19.2199,
        "longitude": -42.4828,
        "uf": "MG"
    },
    {
        "nome": "Belo Vale",
        "latitude": -20.4077,
        "longitude": -44.0275,
        "uf": "MG"
    },
    {
        "nome": "Belterra",
        "latitude": -2.63609,
        "longitude": -54.9374,
        "uf": "PA"
    },
    {
        "nome": "Beneditinos",
        "latitude": -5.45676,
        "longitude": -42.3638,
        "uf": "PI"
    },
    {
        "nome": "Benedito Leite",
        "latitude": -7.21037,
        "longitude": -44.5577,
        "uf": "MA"
    },
    {
        "nome": "Benedito Novo",
        "latitude": -26.781,
        "longitude": -49.3593,
        "uf": "SC"
    },
    {
        "nome": "Benevides",
        "latitude": -1.36183,
        "longitude": -48.2434,
        "uf": "PA"
    },
    {
        "nome": "Benjamin Constant",
        "latitude": -4.37768,
        "longitude": -70.0342,
        "uf": "AM"
    },
    {
        "nome": "Benjamin Constant do Sul",
        "latitude": -27.5086,
        "longitude": -52.5995,
        "uf": "RS"
    },
    {
        "nome": "Bento de Abreu",
        "latitude": -21.2686,
        "longitude": -50.814,
        "uf": "SP"
    },
    {
        "nome": "Bento Fernandes",
        "latitude": -5.69906,
        "longitude": -35.813,
        "uf": "RN"
    },
    {
        "nome": "Bento Gonçalves",
        "latitude": -29.1662,
        "longitude": -51.5165,
        "uf": "RS"
    },
    {
        "nome": "Bequimão",
        "latitude": -2.44162,
        "longitude": -44.7842,
        "uf": "MA"
    },
    {
        "nome": "Berilo",
        "latitude": -16.9567,
        "longitude": -42.4606,
        "uf": "MG"
    },
    {
        "nome": "Berizal",
        "latitude": -15.61,
        "longitude": -41.7432,
        "uf": "MG"
    },
    {
        "nome": "Bernardino Batista",
        "latitude": -6.44572,
        "longitude": -38.5521,
        "uf": "PB"
    },
    {
        "nome": "Bernardino de Campos",
        "latitude": -23.0164,
        "longitude": -49.4679,
        "uf": "SP"
    },
    {
        "nome": "Bernardo do Mearim",
        "latitude": -4.62666,
        "longitude": -44.7608,
        "uf": "MA"
    },
    {
        "nome": "Bernardo Sayão",
        "latitude": -7.87481,
        "longitude": -48.8893,
        "uf": "TO"
    },
    {
        "nome": "Bertioga",
        "latitude": -23.8486,
        "longitude": -46.1396,
        "uf": "SP"
    },
    {
        "nome": "Bertolínia",
        "latitude": -7.63338,
        "longitude": -43.9498,
        "uf": "PI"
    },
    {
        "nome": "Bertópolis",
        "latitude": -17.059,
        "longitude": -40.58,
        "uf": "MG"
    },
    {
        "nome": "Beruri",
        "latitude": -3.89874,
        "longitude": -61.3616,
        "uf": "AM"
    },
    {
        "nome": "Betânia",
        "latitude": -8.26787,
        "longitude": -38.0345,
        "uf": "PE"
    },
    {
        "nome": "Betânia do Piauí",
        "latitude": -8.14376,
        "longitude": -40.7989,
        "uf": "PI"
    },
    {
        "nome": "Betim",
        "latitude": -19.9668,
        "longitude": -44.2008,
        "uf": "MG"
    },
    {
        "nome": "Bezerros",
        "latitude": -8.2328,
        "longitude": -35.796,
        "uf": "PE"
    },
    {
        "nome": "Bias Fortes",
        "latitude": -21.602,
        "longitude": -43.7574,
        "uf": "MG"
    },
    {
        "nome": "Bicas",
        "latitude": -21.7232,
        "longitude": -43.056,
        "uf": "MG"
    },
    {
        "nome": "Biguaçu",
        "latitude": -27.496,
        "longitude": -48.6598,
        "uf": "SC"
    },
    {
        "nome": "Bilac",
        "latitude": -21.404,
        "longitude": -50.4746,
        "uf": "SP"
    },
    {
        "nome": "Biquinhas",
        "latitude": -18.7754,
        "longitude": -45.4974,
        "uf": "MG"
    },
    {
        "nome": "Birigui",
        "latitude": -21.291,
        "longitude": -50.3432,
        "uf": "SP"
    },
    {
        "nome": "Biritiba-Mirim",
        "latitude": -23.5698,
        "longitude": -46.0407,
        "uf": "SP"
    },
    {
        "nome": "Biritinga",
        "latitude": -11.6072,
        "longitude": -38.8051,
        "uf": "BA"
    },
    {
        "nome": "Bituruna",
        "latitude": -26.1607,
        "longitude": -51.5518,
        "uf": "PR"
    },
    {
        "nome": "Blumenau",
        "latitude": -26.9155,
        "longitude": -49.0709,
        "uf": "SC"
    },
    {
        "nome": "Boa Esperança",
        "latitude": -24.2467,
        "longitude": -52.7876,
        "uf": "PR"
    },
    {
        "nome": "Boa Esperança",
        "latitude": -21.0927,
        "longitude": -45.5612,
        "uf": "MG"
    },
    {
        "nome": "Boa Esperança",
        "latitude": -18.5395,
        "longitude": -40.3025,
        "uf": "ES"
    },
    {
        "nome": "Boa Esperança do Iguaçu",
        "latitude": -25.6324,
        "longitude": -53.2108,
        "uf": "PR"
    },
    {
        "nome": "Boa Esperança do Sul",
        "latitude": -21.9918,
        "longitude": -48.3906,
        "uf": "SP"
    },
    {
        "nome": "Boa Hora",
        "latitude": -4.41404,
        "longitude": -42.1357,
        "uf": "PI"
    },
    {
        "nome": "Boa Nova",
        "latitude": -14.3598,
        "longitude": -40.2064,
        "uf": "BA"
    },
    {
        "nome": "Boa Ventura",
        "latitude": -7.40982,
        "longitude": -38.2113,
        "uf": "PB"
    },
    {
        "nome": "Boa Ventura de São Roque",
        "latitude": -24.8688,
        "longitude": -51.6276,
        "uf": "PR"
    },
    {
        "nome": "Boa Viagem",
        "latitude": -5.11258,
        "longitude": -39.7337,
        "uf": "CE"
    },
    {
        "nome": "Boa Vista",
        "latitude": 2.82384,
        "longitude": -60.6753,
        "uf": "RR"
    },
    {
        "nome": "Boa Vista",
        "latitude": -7.26365,
        "longitude": -36.2357,
        "uf": "PB"
    },
    {
        "nome": "Boa Vista da Aparecida",
        "latitude": -25.4308,
        "longitude": -53.4117,
        "uf": "PR"
    },
    {
        "nome": "Boa Vista das Missões",
        "latitude": -27.6671,
        "longitude": -53.3102,
        "uf": "RS"
    },
    {
        "nome": "Boa Vista do Buricá",
        "latitude": -27.6693,
        "longitude": -54.1082,
        "uf": "RS"
    },
    {
        "nome": "Boa Vista do Cadeado",
        "latitude": -28.5791,
        "longitude": -53.8108,
        "uf": "RS"
    },
    {
        "nome": "Boa Vista do Gurupi",
        "latitude": -1.77614,
        "longitude": -46.3002,
        "uf": "MA"
    },
    {
        "nome": "Boa Vista do Incra",
        "latitude": -28.8185,
        "longitude": -53.391,
        "uf": "RS"
    },
    {
        "nome": "Boa Vista do Ramos",
        "latitude": -2.97409,
        "longitude": -57.5873,
        "uf": "AM"
    },
    {
        "nome": "Boa Vista do Sul",
        "latitude": -29.3544,
        "longitude": -51.6687,
        "uf": "RS"
    },
    {
        "nome": "Boa Vista do Tupim",
        "latitude": -12.6498,
        "longitude": -40.6064,
        "uf": "BA"
    },
    {
        "nome": "Boca da Mata",
        "latitude": -9.64308,
        "longitude": -36.2125,
        "uf": "AL"
    },
    {
        "nome": "Boca do Acre",
        "latitude": -8.74232,
        "longitude": -67.3919,
        "uf": "AM"
    },
    {
        "nome": "Bocaina",
        "latitude": -6.94124,
        "longitude": -41.3168,
        "uf": "PI"
    },
    {
        "nome": "Bocaina",
        "latitude": -22.1365,
        "longitude": -48.523,
        "uf": "SP"
    },
    {
        "nome": "Bocaina de Minas",
        "latitude": -22.1697,
        "longitude": -44.3972,
        "uf": "MG"
    },
    {
        "nome": "Bocaina do Sul",
        "latitude": -27.7455,
        "longitude": -49.9423,
        "uf": "SC"
    },
    {
        "nome": "Bocaiúva",
        "latitude": -17.1135,
        "longitude": -43.8104,
        "uf": "MG"
    },
    {
        "nome": "Bocaiúva do Sul",
        "latitude": -25.2066,
        "longitude": -49.1141,
        "uf": "PR"
    },
    {
        "nome": "Bodó",
        "latitude": -5.98027,
        "longitude": -36.4167,
        "uf": "RN"
    },
    {
        "nome": "Bodocó",
        "latitude": -7.77759,
        "longitude": -39.9338,
        "uf": "PE"
    },
    {
        "nome": "Bodoquena",
        "latitude": -20.537,
        "longitude": -56.7127,
        "uf": "MS"
    },
    {
        "nome": "Bofete",
        "latitude": -23.1055,
        "longitude": -48.2582,
        "uf": "SP"
    },
    {
        "nome": "Boituva",
        "latitude": -23.2855,
        "longitude": -47.6786,
        "uf": "SP"
    },
    {
        "nome": "Bom Conselho",
        "latitude": -9.16919,
        "longitude": -36.6857,
        "uf": "PE"
    },
    {
        "nome": "Bom Despacho",
        "latitude": -19.7386,
        "longitude": -45.2622,
        "uf": "MG"
    },
    {
        "nome": "Bom Jardim",
        "latitude": -22.1545,
        "longitude": -42.4251,
        "uf": "RJ"
    },
    {
        "nome": "Bom Jardim",
        "latitude": -7.79695,
        "longitude": -35.5784,
        "uf": "PE"
    },
    {
        "nome": "Bom Jardim",
        "latitude": -3.54129,
        "longitude": -45.606,
        "uf": "MA"
    },
    {
        "nome": "Bom Jardim da Serra",
        "latitude": -28.3377,
        "longitude": -49.6373,
        "uf": "SC"
    },
    {
        "nome": "Bom Jardim de Goiás",
        "latitude": -16.2063,
        "longitude": -52.1728,
        "uf": "GO"
    },
    {
        "nome": "Bom Jardim de Minas",
        "latitude": -21.9479,
        "longitude": -44.1885,
        "uf": "MG"
    },
    {
        "nome": "Bom Jesus",
        "latitude": -26.7326,
        "longitude": -52.3919,
        "uf": "SC"
    },
    {
        "nome": "Bom Jesus",
        "latitude": -28.6697,
        "longitude": -50.4295,
        "uf": "RS"
    },
    {
        "nome": "Bom Jesus",
        "latitude": -9.07124,
        "longitude": -44.359,
        "uf": "PI"
    },
    {
        "nome": "Bom Jesus",
        "latitude": -5.98648,
        "longitude": -35.5792,
        "uf": "RN"
    },
    {
        "nome": "Bom Jesus",
        "latitude": -6.81601,
        "longitude": -38.6453,
        "uf": "PB"
    },
    {
        "nome": "Bom Jesus da Lapa",
        "latitude": -13.2506,
        "longitude": -43.4108,
        "uf": "BA"
    },
    {
        "nome": "Bom Jesus da Penha",
        "latitude": -21.0148,
        "longitude": -46.5174,
        "uf": "MG"
    },
    {
        "nome": "Bom Jesus da Serra",
        "latitude": -14.3663,
        "longitude": -40.5126,
        "uf": "BA"
    },
    {
        "nome": "Bom Jesus das Selvas",
        "latitude": -4.47638,
        "longitude": -46.8641,
        "uf": "MA"
    },
    {
        "nome": "Bom Jesus de Goiás",
        "latitude": -18.2173,
        "longitude": -49.74,
        "uf": "GO"
    },
    {
        "nome": "Bom Jesus do Amparo",
        "latitude": -19.7054,
        "longitude": -43.4782,
        "uf": "MG"
    },
    {
        "nome": "Bom Jesus do Araguaia",
        "latitude": -12.1706,
        "longitude": -51.5032,
        "uf": "MT"
    },
    {
        "nome": "Bom Jesus do Galho",
        "latitude": -19.836,
        "longitude": -42.3165,
        "uf": "MG"
    },
    {
        "nome": "Bom Jesus do Itabapoana",
        "latitude": -21.1449,
        "longitude": -41.6822,
        "uf": "RJ"
    },
    {
        "nome": "Bom Jesus do Norte",
        "latitude": -21.1173,
        "longitude": -41.6731,
        "uf": "ES"
    },
    {
        "nome": "Bom Jesus do Oeste",
        "latitude": -26.6927,
        "longitude": -53.0967,
        "uf": "SC"
    },
    {
        "nome": "Bom Jesus do Sul",
        "latitude": -26.1958,
        "longitude": -53.5955,
        "uf": "PR"
    },
    {
        "nome": "Bom Jesus do Tocantins",
        "latitude": -5.0424,
        "longitude": -48.6047,
        "uf": "PA"
    },
    {
        "nome": "Bom Jesus do Tocantins",
        "latitude": -8.96306,
        "longitude": -48.165,
        "uf": "TO"
    },
    {
        "nome": "Bom Jesus dos Perdões",
        "latitude": -23.1356,
        "longitude": -46.4675,
        "uf": "SP"
    },
    {
        "nome": "Bom Lugar",
        "latitude": -4.37311,
        "longitude": -45.0326,
        "uf": "MA"
    },
    {
        "nome": "Bom Princípio",
        "latitude": -29.4856,
        "longitude": -51.3548,
        "uf": "RS"
    },
    {
        "nome": "Bom Princípio do Piauí",
        "latitude": -3.19631,
        "longitude": -41.6403,
        "uf": "PI"
    },
    {
        "nome": "Bom Progresso",
        "latitude": -27.5399,
        "longitude": -53.8716,
        "uf": "RS"
    },
    {
        "nome": "Bom Repouso",
        "latitude": -22.4675,
        "longitude": -46.144,
        "uf": "MG"
    },
    {
        "nome": "Bom Retiro",
        "latitude": -27.799,
        "longitude": -49.487,
        "uf": "SC"
    },
    {
        "nome": "Bom Retiro do Sul",
        "latitude": -29.6071,
        "longitude": -51.9456,
        "uf": "RS"
    },
    {
        "nome": "Bom Sucesso",
        "latitude": -21.0329,
        "longitude": -44.7537,
        "uf": "MG"
    },
    {
        "nome": "Bom Sucesso",
        "latitude": -23.7063,
        "longitude": -51.7671,
        "uf": "PR"
    },
    {
        "nome": "Bom Sucesso",
        "latitude": -6.44176,
        "longitude": -37.9234,
        "uf": "PB"
    },
    {
        "nome": "Bom Sucesso de Itararé",
        "latitude": -24.3155,
        "longitude": -49.1451,
        "uf": "SP"
    },
    {
        "nome": "Bom Sucesso do Sul",
        "latitude": -26.0731,
        "longitude": -52.8353,
        "uf": "PR"
    },
    {
        "nome": "Bombinhas",
        "latitude": -27.1382,
        "longitude": -48.5146,
        "uf": "SC"
    },
    {
        "nome": "Bonfim",
        "latitude": 3.36161,
        "longitude": -59.8333,
        "uf": "RR"
    },
    {
        "nome": "Bonfim",
        "latitude": -20.3302,
        "longitude": -44.2366,
        "uf": "MG"
    },
    {
        "nome": "Bonfim do Piauí",
        "latitude": -9.1605,
        "longitude": -42.8865,
        "uf": "PI"
    },
    {
        "nome": "Bonfinópolis",
        "latitude": -16.6173,
        "longitude": -48.9616,
        "uf": "GO"
    },
    {
        "nome": "Bonfinópolis de Minas",
        "latitude": -16.568,
        "longitude": -45.9839,
        "uf": "MG"
    },
    {
        "nome": "Boninal",
        "latitude": -12.7069,
        "longitude": -41.8286,
        "uf": "BA"
    },
    {
        "nome": "Bonito",
        "latitude": -8.47163,
        "longitude": -35.7292,
        "uf": "PE"
    },
    {
        "nome": "Bonito",
        "latitude": -11.9668,
        "longitude": -41.2647,
        "uf": "BA"
    },
    {
        "nome": "Bonito",
        "latitude": -1.36745,
        "longitude": -47.3066,
        "uf": "PA"
    },
    {
        "nome": "Bonito",
        "latitude": -21.1261,
        "longitude": -56.4836,
        "uf": "MS"
    },
    {
        "nome": "Bonito de Minas",
        "latitude": -15.3231,
        "longitude": -44.7543,
        "uf": "MG"
    },
    {
        "nome": "Bonito de Santa Fé",
        "latitude": -7.31341,
        "longitude": -38.5133,
        "uf": "PB"
    },
    {
        "nome": "Bonópolis",
        "latitude": -13.6329,
        "longitude": -49.8106,
        "uf": "GO"
    },
    {
        "nome": "Boqueirão",
        "latitude": -7.487,
        "longitude": -36.1309,
        "uf": "PB"
    },
    {
        "nome": "Boqueirão do Leão",
        "latitude": -29.3046,
        "longitude": -52.4284,
        "uf": "RS"
    },
    {
        "nome": "Boqueirão do Piauí",
        "latitude": -4.48181,
        "longitude": -42.1212,
        "uf": "PI"
    },
    {
        "nome": "Boquim",
        "latitude": -11.1397,
        "longitude": -37.6195,
        "uf": "SE"
    },
    {
        "nome": "Boquira",
        "latitude": -12.8205,
        "longitude": -42.7324,
        "uf": "BA"
    },
    {
        "nome": "Borá",
        "latitude": -22.2696,
        "longitude": -50.5409,
        "uf": "SP"
    },
    {
        "nome": "Boracéia",
        "latitude": -22.1926,
        "longitude": -48.7808,
        "uf": "SP"
    },
    {
        "nome": "Borba",
        "latitude": -4.39154,
        "longitude": -59.5874,
        "uf": "AM"
    },
    {
        "nome": "Borborema",
        "latitude": -6.80199,
        "longitude": -35.6187,
        "uf": "PB"
    },
    {
        "nome": "Borborema",
        "latitude": -21.6214,
        "longitude": -49.0741,
        "uf": "SP"
    },
    {
        "nome": "Borda da Mata",
        "latitude": -22.2707,
        "longitude": -46.1653,
        "uf": "MG"
    },
    {
        "nome": "Borebi",
        "latitude": -22.5728,
        "longitude": -48.9707,
        "uf": "SP"
    },
    {
        "nome": "Borrazópolis",
        "latitude": -23.9366,
        "longitude": -51.5875,
        "uf": "PR"
    },
    {
        "nome": "Bossoroca",
        "latitude": -28.7291,
        "longitude": -54.9035,
        "uf": "RS"
    },
    {
        "nome": "Botelhos",
        "latitude": -21.6412,
        "longitude": -46.391,
        "uf": "MG"
    },
    {
        "nome": "Botucatu",
        "latitude": -22.8837,
        "longitude": -48.4437,
        "uf": "SP"
    },
    {
        "nome": "Botumirim",
        "latitude": -16.8657,
        "longitude": -43.0086,
        "uf": "MG"
    },
    {
        "nome": "Botuporã",
        "latitude": -13.3772,
        "longitude": -42.5163,
        "uf": "BA"
    },
    {
        "nome": "Botuverá",
        "latitude": -27.2007,
        "longitude": -49.0689,
        "uf": "SC"
    },
    {
        "nome": "Bozano",
        "latitude": -28.3659,
        "longitude": -53.772,
        "uf": "RS"
    },
    {
        "nome": "Braço do Norte",
        "latitude": -28.2681,
        "longitude": -49.1701,
        "uf": "SC"
    },
    {
        "nome": "Braço do Trombudo",
        "latitude": -27.3586,
        "longitude": -49.8821,
        "uf": "SC"
    },
    {
        "nome": "Braga",
        "latitude": -27.6173,
        "longitude": -53.7405,
        "uf": "RS"
    },
    {
        "nome": "Bragança",
        "latitude": -1.06126,
        "longitude": -46.7826,
        "uf": "PA"
    },
    {
        "nome": "Bragança Paulista",
        "latitude": -22.9527,
        "longitude": -46.5419,
        "uf": "SP"
    },
    {
        "nome": "Braganey",
        "latitude": -24.8173,
        "longitude": -53.1218,
        "uf": "PR"
    },
    {
        "nome": "Branquinha",
        "latitude": -9.23342,
        "longitude": -36.0162,
        "uf": "AL"
    },
    {
        "nome": "Brás Pires",
        "latitude": -20.8419,
        "longitude": -43.2406,
        "uf": "MG"
    },
    {
        "nome": "Brasil Novo",
        "latitude": -3.29792,
        "longitude": -52.534,
        "uf": "PA"
    },
    {
        "nome": "Brasilândia",
        "latitude": -21.2544,
        "longitude": -52.0365,
        "uf": "MS"
    },
    {
        "nome": "Brasilândia de Minas",
        "latitude": -16.9999,
        "longitude": -46.0081,
        "uf": "MG"
    },
    {
        "nome": "Brasilândia do Sul",
        "latitude": -24.1978,
        "longitude": -53.5275,
        "uf": "PR"
    },
    {
        "nome": "Brasilândia do Tocantins",
        "latitude": -8.38918,
        "longitude": -48.4822,
        "uf": "TO"
    },
    {
        "nome": "Brasiléia",
        "latitude": -10.995,
        "longitude": -68.7497,
        "uf": "AC"
    },
    {
        "nome": "Brasileira",
        "latitude": -4.1337,
        "longitude": -41.7859,
        "uf": "PI"
    },
    {
        "nome": "Brasília",
        "latitude": -15.7795,
        "longitude": -47.9297,
        "uf": "DF"
    },
    {
        "nome": "Brasília de Minas",
        "latitude": -16.2104,
        "longitude": -44.4299,
        "uf": "MG"
    },
    {
        "nome": "Brasnorte",
        "latitude": -12.1474,
        "longitude": -57.9833,
        "uf": "MT"
    },
    {
        "nome": "Braúna",
        "latitude": -21.499,
        "longitude": -50.3175,
        "uf": "SP"
    },
    {
        "nome": "Braúnas",
        "latitude": -19.0562,
        "longitude": -42.7099,
        "uf": "MG"
    },
    {
        "nome": "Brazabrantes",
        "latitude": -16.4281,
        "longitude": -49.3863,
        "uf": "GO"
    },
    {
        "nome": "Brazópolis",
        "latitude": -22.4743,
        "longitude": -45.6166,
        "uf": "MG"
    },
    {
        "nome": "Brejão",
        "latitude": -9.02915,
        "longitude": -36.566,
        "uf": "PE"
    },
    {
        "nome": "Brejetuba",
        "latitude": -20.1395,
        "longitude": -41.2954,
        "uf": "ES"
    },
    {
        "nome": "Brejinho",
        "latitude": -6.18566,
        "longitude": -35.3591,
        "uf": "RN"
    },
    {
        "nome": "Brejinho",
        "latitude": -7.34694,
        "longitude": -37.2865,
        "uf": "PE"
    },
    {
        "nome": "Brejinho de Nazaré",
        "latitude": -11.0058,
        "longitude": -48.5683,
        "uf": "TO"
    },
    {
        "nome": "Brejo",
        "latitude": -3.67796,
        "longitude": -42.7527,
        "uf": "MA"
    },
    {
        "nome": "Brejo Alegre",
        "latitude": -21.1651,
        "longitude": -50.1861,
        "uf": "SP"
    },
    {
        "nome": "Brejo da Madre de Deus",
        "latitude": -8.14933,
        "longitude": -36.3741,
        "uf": "PE"
    },
    {
        "nome": "Brejo de Areia",
        "latitude": -4.334,
        "longitude": -45.581,
        "uf": "MA"
    },
    {
        "nome": "Brejo do Cruz",
        "latitude": -6.34185,
        "longitude": -37.4943,
        "uf": "PB"
    },
    {
        "nome": "Brejo do Piauí",
        "latitude": -8.20314,
        "longitude": -42.8229,
        "uf": "PI"
    },
    {
        "nome": "Brejo dos Santos",
        "latitude": -6.37065,
        "longitude": -37.8253,
        "uf": "PB"
    },
    {
        "nome": "Brejo Grande",
        "latitude": -10.4297,
        "longitude": -36.4611,
        "uf": "SE"
    },
    {
        "nome": "Brejo Grande do Araguaia",
        "latitude": -5.69822,
        "longitude": -48.4103,
        "uf": "PA"
    },
    {
        "nome": "Brejo Santo",
        "latitude": -7.48469,
        "longitude": -38.9799,
        "uf": "CE"
    },
    {
        "nome": "Brejões",
        "latitude": -13.1039,
        "longitude": -39.7988,
        "uf": "BA"
    },
    {
        "nome": "Brejolândia",
        "latitude": -12.4815,
        "longitude": -43.9679,
        "uf": "BA"
    },
    {
        "nome": "Breu Branco",
        "latitude": -3.77191,
        "longitude": -49.5735,
        "uf": "PA"
    },
    {
        "nome": "Breves",
        "latitude": -1.68036,
        "longitude": -50.4791,
        "uf": "PA"
    },
    {
        "nome": "Britânia",
        "latitude": -15.2428,
        "longitude": -51.1602,
        "uf": "GO"
    },
    {
        "nome": "Brochier",
        "latitude": -29.5501,
        "longitude": -51.5945,
        "uf": "RS"
    },
    {
        "nome": "Brodowski",
        "latitude": -20.9845,
        "longitude": -47.6572,
        "uf": "SP"
    },
    {
        "nome": "Brotas",
        "latitude": -22.2795,
        "longitude": -48.1251,
        "uf": "SP"
    },
    {
        "nome": "Brotas de Macaúbas",
        "latitude": -11.9915,
        "longitude": -42.6326,
        "uf": "BA"
    },
    {
        "nome": "Brumadinho",
        "latitude": -20.151,
        "longitude": -44.2007,
        "uf": "MG"
    },
    {
        "nome": "Brumado",
        "latitude": -14.2021,
        "longitude": -41.6696,
        "uf": "BA"
    },
    {
        "nome": "Brunópolis",
        "latitude": -27.3058,
        "longitude": -50.8684,
        "uf": "SC"
    },
    {
        "nome": "Brusque",
        "latitude": -27.0977,
        "longitude": -48.9107,
        "uf": "SC"
    },
    {
        "nome": "Bueno Brandão",
        "latitude": -22.4383,
        "longitude": -46.3491,
        "uf": "MG"
    },
    {
        "nome": "Buenópolis",
        "latitude": -17.8744,
        "longitude": -44.1775,
        "uf": "MG"
    },
    {
        "nome": "Buenos Aires",
        "latitude": -7.72449,
        "longitude": -35.3182,
        "uf": "PE"
    },
    {
        "nome": "Buerarema",
        "latitude": -14.9595,
        "longitude": -39.3028,
        "uf": "BA"
    },
    {
        "nome": "Bugre",
        "latitude": -19.4231,
        "longitude": -42.2552,
        "uf": "MG"
    },
    {
        "nome": "Buíque",
        "latitude": -8.61954,
        "longitude": -37.1606,
        "uf": "PE"
    },
    {
        "nome": "Bujari",
        "latitude": -9.81528,
        "longitude": -67.955,
        "uf": "AC"
    },
    {
        "nome": "Bujaru",
        "latitude": -1.51762,
        "longitude": -48.0381,
        "uf": "PA"
    },
    {
        "nome": "Buri",
        "latitude": -23.7977,
        "longitude": -48.5958,
        "uf": "SP"
    },
    {
        "nome": "Buritama",
        "latitude": -21.0661,
        "longitude": -50.1475,
        "uf": "SP"
    },
    {
        "nome": "Buriti",
        "latitude": -3.94169,
        "longitude": -42.9179,
        "uf": "MA"
    },
    {
        "nome": "Buriti Alegre",
        "latitude": -18.1378,
        "longitude": -49.0404,
        "uf": "GO"
    },
    {
        "nome": "Buriti Bravo",
        "latitude": -5.83239,
        "longitude": -43.8353,
        "uf": "MA"
    },
    {
        "nome": "Buriti de Goiás",
        "latitude": -16.1792,
        "longitude": -50.4302,
        "uf": "GO"
    },
    {
        "nome": "Buriti do Tocantins",
        "latitude": -5.31448,
        "longitude": -48.2271,
        "uf": "TO"
    },
    {
        "nome": "Buriti dos Lopes",
        "latitude": -3.18259,
        "longitude": -41.8695,
        "uf": "PI"
    },
    {
        "nome": "Buriti dos Montes",
        "latitude": -5.30584,
        "longitude": -41.0933,
        "uf": "PI"
    },